$GNRMC,154905.00,A,5159.37277,N,00059.49186,W,0.071,,040414,,,A*73
$GNVTG,,T,,M,0.071,N,0.132,K,A*3B
$GNGGA,154905.00,5159.37277,N,00059.49186,W,1,09,0.89,113.9,M,46.8,M,,*54
$GNGSA,A,3,26,24,14,18,12,15,17,25,22,,,,1.60,0.89,1.32*12
$GNGSA,A,3,,,,,,,,,,,,,1.60,0.89,1.32*1A
$GPGSV,3,1,10,01,02,011,,12,50,220,50,14,21,312,50,15,37,168,50*73
$GPGSV,3,2,10,17,33,061,50,18,20,247,50,22,23,285,50,24,86,058,50*79
$GPGSV,3,3,10,25,14,229,50,26,05,146,50*71
$GLGSV,1,1,00*65
$GNGLL,5159.37277,N,00059.49186,W,154905.00,A,A*69
$GNTXT,01,01,02,u-blox AG - www.u-blox.com*4E
$GNTXT,01,01,02,HW UBX-M80xx 00080000 *43
$GNTXT,01,01,02,EXT CORE 2.01 (89981) Jan 20 2015 17:22:06*4D
$GNTXT,01,01,02,ROM BASE 2.01 (75331) Oct 29 2013 13:28:17*44
$GNTXT,01,01,02,MOD NEO-M8L-0*78
$GNTXT,01,01,02,PROTVER 15.01*00
$GNTXT,01,01,02,GNSS OTP:  GPS GLO, SEL:  GPS GLO*67
$GNTXT,01,01,02,ADR 3.11 M8L*20
$GNTXT,01,01,02,ANTSUPERV=AC *00
$GNTXT,01,01,02,ANTSTATUS=OK*25
$GNTXT,01,01,02,FIS 0xEF4015 (84524) found*2C
$GNTXT,01,01,02,LLC FFFFFFFF-FFFFFFFF-FFFFFFFF-FFFFFF7E-FFFFFF49*4F
$GNRMC,154906.00,A,5159.37277,N,00059.49186,W,0.075,,040414,,,A*74
$GNVTG,,T,,M,0.075,N,0.140,K,A*3A
$GNGGA,154906.00,5159.37277,N,00059.49186,W,1,09,0.89,113.9,M,46.8,M,,*57
$GNGSA,A,3,26,24,14,18,12,15,17,25,22,,,,1.60,0.89,1.32*12
$GNGSA,A,3,,,,,,,,,,,,,1.60,0.89,1.32*1A
$GPGSV,3,1,10,01,02,011,,12,50,220,50,14,21,312,50,15,37,168,50*73
$GPGSV,3,2,10,17,33,061,50,18,20,247,50,22,23,285,50,24,86,058,50*79
$GPGSV,3,3,10,25,14,229,50,26,05,146,50*71
$GLGSV,1,1,00*65
$GNGLL,5159.37277,N,00059.49186,W,154906.00,A,A*6A
$GNRMC,154907.00,A,5159.37277,N,00059.49186,W,0.075,,040414,,,A*75
$GNVTG,,T,,M,0.075,N,0.139,K,A*34
$GNGGA,154907.00,5159.37277,N,00059.49186,W,1,09,0.89,113.9,M,46.8,M,,*56
$GNGSA,A,3,26,24,14,18,12,15,17,25,22,,,,1.60,0.89,1.32*12
$GNGSA,A,3,,,,,,,,,,,,,1.60,0.89,1.32*1A
$GPGSV,3,1,10,01,02,011,,12,50,220,50,14,21,312,50,15,37,168,50*73
$GPGSV,3,2,10,17,33,061,50,18,20,247,50,22,23,285,50,24,86,058,50*79
$GPGSV,3,3,10,25,14,229,50,26,05,146,50*71
$GLGSV,1,1,00*65
$GNGLL,5159.37277,N,00059.49186,W,154907.00,A,A*6B
$GNRMC,154908.00,A,5159.37277,N,00059.49186,W,0.076,,040414,,,A*79
$GNVTG,,T,,M,0.076,N,0.140,K,A*39
$GNGGA,154908.00,5159.37277,N,00059.49186,W,1,09,0.89,113.9,M,46.8,M,,*59
$GNGSA,A,3,26,24,14,18,12,15,17,25,22,,,,1.60,0.89,1.32*12
$GNGSA,A,3,,,,,,,,,,,,,1.60,0.89,1.32*1A
$GPGSV,3,1,10,01,02,011,,12,50,220,50,14,21,312,50,15,37,168,50*73
$GPGSV,3,2,10,17,33,061,50,18,20,247,50,22,23,285,50,24,86,058,50*79
$GPGSV,3,3,10,25,14,229,50,26,05,146,50*71
$GLGSV,1,1,00*65
$GNGLL,5159.37277,N,00059.49186,W,154908.00,A,A*64
$GNRMC,154909.00,A,5159.37277,N,00059.49186,W,0.075,,040414,,,A*7B
$GNVTG,,T,,M,0.075,N,0.138,K,A*35
$GNGGA,154909.00,5159.37277,N,00059.49186,W,1,09,0.89,113.9,M,46.8,M,,*58
$GNGSA,A,3,26,24,14,18,12,15,17,25,22,,,,1.60,0.89,1.32*12
$GNGSA,A,3,,,,,,,,,,,,,1.60,0.89,1.32*1A
$GPGSV,3,1,10,01,02,011,,12,50,220,50,14,21,312,50,15,37,168,50*73
$GPGSV,3,2,10,17,33,061,50,18,20,247,50,22,23,285,50,24,86,058,50*79
$GPGSV,3,3,10,25,14,229,50,26,05,146,50*71
$GLGSV,1,1,00*65
$GNGLL,5159.37277,N,00059.49186,W,154909.00,A,A*65
$GNRMC,154910.00,A,5159.37277,N,00059.49186,W,0.076,,040414,,,A*70
$GNVTG,,T,,M,0.076,N,0.142,K,A*3B
$GNGGA,154910.00,5159.37277,N,00059.49186,W,1,09,0.89,113.9,M,46.8,M,,*50
$GNGSA,A,3,26,24,14,18,12,15,17,25,22,,,,1.60,0.89,1.32*12
$GNGSA,A,3,,,,,,,,,,,,,1.60,0.89,1.32*1A
$GPGSV,3,1,10,01,02,011,,12,50,220,50,14,21,312,50,15,37,168,50*73
$GPGSV,3,2,10,17,33,061,50,18,20,247,50,22,23,285,50,24,86,058,50*79
$GPGSV,3,3,10,25,14,229,50,26,05,146,50*71
$GLGSV,1,1,00*65
$GNGLL,5159.37277,N,00059.49186,W,154910.00,A,A*6D
$GNRMC,154911.00,A,5159.37277,N,00059.49186,W,0.078,,040414,,,A*7F
$GNVTG,,T,,M,0.078,N,0.145,K,A*32
$GNGGA,154911.00,5159.37277,N,00059.49186,W,1,09,0.89,113.9,M,46.8,M,,*51
$GNGSA,A,3,26,24,14,18,12,15,17,25,22,,,,1.60,0.89,1.32*12
$GNGSA,A,3,,,,,,,,,,,,,1.60,0.89,1.32*1A
$GPGSV,3,1,10,01,02,011,,12,50,220,50,14,21,312,50,15,37,168,50*73
$GPGSV,3,2,10,17,33,061,50,18,20,247,50,22,23,285,50,24,86,058,50*79
$GPGSV,3,3,10,25,14,229,50,26,05,146,50*71
$GLGSV,1,1,00*65
$GNGLL,5159.37277,N,00059.49186,W,154911.00,A,A*6C
$GNRMC,154912.00,A,5159.37277,N,00059.49186,W,0.079,,040414,,,A*7D
$GNVTG,,T,,M,0.079,N,0.146,K,A*30
$GNGGA,154912.00,5159.37277,N,00059.49186,W,1,09,0.89,113.9,M,46.8,M,,*52
$GNGSA,A,3,26,24,14,18,12,15,17,25,22,,,,1.60,0.89,1.32*12
$GNGSA,A,3,,,,,,,,,,,,,1.60,0.89,1.32*1A
$GPGSV,3,1,10,01,02,011,,12,50,220,50,14,21,312,50,15,37,168,50*73
$GPGSV,3,2,10,17,33,061,50,18,20,247,50,22,23,285,50,24,86,058,50*79
$GPGSV,3,3,10,25,14,229,50,26,05,146,50*71
$GLGSV,1,1,00*65
$GNGLL,5159.37277,N,00059.49186,W,154912.00,A,A*6F
$GNRMC,154913.00,A,5159.37277,N,00059.49186,W,0.080,,040414,,,A*7A
$GNVTG,,T,,M,0.080,N,0.149,K,A*39
$GNGGA,154913.00,5159.37277,N,00059.49186,W,1,09,0.89,113.9,M,46.8,M,,*53
$GNGSA,A,3,26,24,14,18,12,15,17,25,22,,,,1.60,0.89,1.32*12
$GNGSA,A,3,,,,,,,,,,,,,1.60,0.89,1.32*1A
$GPGSV,3,1,10,01,02,011,,12,50,220,50,14,21,312,50,15,37,168,50*73
$GPGSV,3,2,10,17,33,061,50,18,20,247,50,22,23,285,50,24,86,058,50*79
$GPGSV,3,3,10,25,14,229,50,26,05,146,50*71
$GLGSV,1,1,00*65
$GNGLL,5159.37277,N,00059.49186,W,154913.00,A,A*6E
$GNRMC,154914.00,A,5159.37277,N,00059.49186,W,0.075,,040414,,,A*77
$GNVTG,,T,,M,0.075,N,0.139,K,A*34
$GNGGA,154914.00,5159.37277,N,00059.49186,W,1,08,0.90,113.9,M,46.8,M,,*5D
$GNGSA,A,3,26,14,18,12,15,17,25,22,,,,,2.00,0.90,1.79*16
$GNGSA,A,3,,,,,,,,,,,,,2.00,0.90,1.79*18
$GPGSV,3,1,10,01,02,011,,12,50,220,50,14,21,312,50,15,37,168,50*73
$GPGSV,3,2,10,17,33,061,50,18,20,247,50,22,23,285,50,24,,,50*4A
$GPGSV,3,3,10,25,14,229,50,26,05,146,50*71
$GLGSV,1,1,00*65
$GNGLL,5159.37277,N,00059.49186,W,154914.00,A,A*69
$GNRMC,154915.00,A,5159.37277,N,00059.49186,W,0.075,,040414,,,A*76
$GNVTG,,T,,M,0.075,N,0.139,K,A*34
$GNGGA,154915.00,5159.37277,N,00059.49186,W,1,08,0.90,113.9,M,46.8,M,,*5C
$GNGSA,A,3,26,14,18,12,15,17,25,22,,,,,2.00,0.90,1.79*16
$GNGSA,A,3,,,,,,,,,,,,,2.00,0.90,1.79*18
$GPGSV,3,1,10,01,02,011,,12,50,220,50,14,21,312,50,15,37,168,50*73
$GPGSV,3,2,10,17,33,061,50,18,20,247,50,22,23,285,50,24,,,50*4A
$GPGSV,3,3,10,25,14,229,50,26,05,146,50*71
$GLGSV,1,1,00*65
$GNGLL,5159.37277,N,00059.49186,W,154915.00,A,A*68
$GNRMC,154916.00,A,5159.37277,N,00059.49186,W,0.081,,040414,,,A*7E
$GNVTG,,T,,M,0.081,N,0.150,K,A*30
$GNGGA,154916.00,5159.37277,N,00059.49186,W,1,08,0.90,113.9,M,46.8,M,,*5F
$GNGSA,A,3,26,14,18,12,15,17,25,22,,,,,2.00,0.90,1.79*16
$GNGSA,A,3,,,,,,,,,,,,,2.00,0.90,1.79*18
$GPGSV,3,1,10,01,02,011,,12,50,220,50,14,21,312,50,15,37,168,50*73
$GPGSV,3,2,10,17,33,061,50,18,20,247,50,22,23,285,50,24,,,50*4A
$GPGSV,3,3,10,25,14,229,50,26,05,146,50*71
$GLGSV,1,1,00*65
$GNGLL,5159.37277,N,00059.49186,W,154916.00,A,A*6B
$GNRMC,154917.00,A,5159.37277,N,00059.49186,W,0.075,,040414,,,A*74
$GNVTG,,T,,M,0.075,N,0.140,K,A*3A
$GNGGA,154917.00,5159.37277,N,00059.49186,W,1,08,0.90,113.9,M,46.8,M,,*5E
$GNGSA,A,3,26,14,18,12,15,17,25,22,,,,,2.00,0.90,1.79*16
$GNGSA,A,3,,,,,,,,,,,,,2.00,0.90,1.79*18
$GPGSV,3,1,10,01,02,011,,12,50,220,50,14,21,312,50,15,37,168,50*73
$GPGSV,3,2,10,17,33,061,50,18,20,247,50,22,23,285,50,24,,,50*4A
$GPGSV,3,3,10,25,14,229,50,26,05,146,50*71
$GLGSV,1,1,00*65
$GNGLL,5159.37277,N,00059.49186,W,154917.00,A,A*6A
$GNRMC,154918.00,A,5159.37277,N,00059.49186,W,0.077,,040414,,,A*79
$GNVTG,,T,,M,0.077,N,0.144,K,A*3C
$GNGGA,154918.00,5159.37277,N,00059.49186,W,1,08,0.90,113.9,M,46.8,M,,*51
$GNGSA,A,3,26,14,18,12,15,17,25,22,,,,,2.00,0.90,1.79*16
$GNGSA,A,3,,,,,,,,,,,,,2.00,0.90,1.79*18
$GPGSV,3,1,10,01,02,011,,12,50,220,50,14,21,312,50,15,37,168,50*73
$GPGSV,3,2,10,17,33,061,50,18,20,247,50,22,23,285,50,24,,,50*4A
$GPGSV,3,3,10,25,14,229,50,26,05,146,50*71
$GLGSV,1,1,00*65
$GNGLL,5159.37277,N,00059.49186,W,154918.00,A,A*65
$GNRMC,154919.00,A,5159.37277,N,00059.49187,W,0.078,,040414,,,A*76
$GNVTG,,T,,M,0.078,N,0.145,K,A*32
$GNGGA,154919.00,5159.37277,N,00059.49187,W,1,08,0.90,113.9,M,46.8,M,,*51
$GNGSA,A,3,26,14,18,12,15,17,25,22,,,,,2.00,0.90,1.79*16
$GNGSA,A,3,,,,,,,,,,,,,2.00,0.90,1.79*18
$GPGSV,3,1,10,01,02,011,,12,50,220,50,14,21,312,50,15,37,168,50*73
$GPGSV,3,2,10,17,33,061,50,18,20,247,50,22,23,285,50,24,,,50*4A
$GPGSV,3,3,10,25,14,229,50,26,05,146,50*71
$GLGSV,1,1,00*65
$GNGLL,5159.37277,N,00059.49187,W,154919.00,A,A*65
$GNRMC,154920.00,A,5159.37277,N,00059.49187,W,0.082,,040414,,,A*79
$GNVTG,,T,,M,0.082,N,0.152,K,A*31
$GNGGA,154920.00,5159.37277,N,00059.49187,W,1,08,0.90,113.9,M,46.8,M,,*5B
$GNGSA,A,3,26,14,18,12,15,17,25,22,,,,,2.00,0.90,1.79*16
$GNGSA,A,3,,,,,,,,,,,,,2.00,0.90,1.79*18
$GPGSV,3,1,10,01,02,011,,12,50,220,50,14,21,312,50,15,37,168,50*73
$GPGSV,3,2,10,17,33,061,50,18,20,247,50,22,23,285,50,24,,,50*4A
$GPGSV,3,3,10,25,14,229,50,26,05,146,50*71
$GLGSV,1,1,00*65
$GNGLL,5159.37277,N,00059.49187,W,154920.00,A,A*6F
$GNRMC,154921.00,A,5159.37277,N,00059.49187,W,0.083,,040414,,,A*79
$GNVTG,,T,,M,0.083,N,0.154,K,A*36
$GNGGA,154921.00,5159.37277,N,00059.49187,W,1,08,0.90,113.9,M,46.8,M,,*5A
$GNGSA,A,3,26,14,18,12,15,17,25,22,,,,,2.00,0.90,1.78*17
$GNGSA,A,3,,,,,,,,,,,,,2.00,0.90,1.78*19
$GPGSV,3,1,10,01,02,011,,12,50,220,50,14,21,312,50,15,37,168,50*73
$GPGSV,3,2,10,17,33,061,50,18,20,247,50,22,23,285,50,24,,,50*4A
$GPGSV,3,3,10,25,14,229,50,26,05,146,50*71
$GLGSV,1,1,00*65
$GNGLL,5159.37277,N,00059.49187,W,154921.00,A,A*6E
$GNRMC,154922.00,A,5159.37277,N,00059.49187,W,0.075,,040414,,,A*73
$GNVTG,,T,,M,0.075,N,0.140,K,A*3A
$GNGGA,154922.00,5159.37277,N,00059.49187,W,1,08,0.90,113.9,M,46.8,M,,*59
$GNGSA,A,3,26,14,18,12,15,17,25,22,,,,,2.00,0.90,1.78*17
$GNGSA,A,3,,,,,,,,,,,,,2.00,0.90,1.78*19
$GPGSV,3,1,10,01,02,011,,12,50,220,50,14,21,312,50,15,37,168,50*73
$GPGSV,3,2,10,17,33,061,50,18,20,247,50,22,23,285,50,24,,,50*4A
$GPGSV,3,3,10,25,14,229,50,26,05,146,50*71
$GLGSV,1,1,00*65
$GNGLL,5159.37277,N,00059.49187,W,154922.00,A,A*6D
$GNRMC,154923.00,A,5159.37277,N,00059.49187,W,0.081,,040414,,,A*79
$GNVTG,,T,,M,0.081,N,0.150,K,A*30
$GNGGA,154923.00,5159.37277,N,00059.49187,W,1,08,0.90,113.9,M,46.8,M,,*58
$GNGSA,A,3,26,14,18,12,15,17,25,22,,,,,2.00,0.90,1.78*17
$GNGSA,A,3,,,,,,,,,,,,,2.00,0.90,1.78*19
$GPGSV,3,1,10,01,02,011,,12,50,220,50,14,21,312,50,15,37,168,50*73
$GPGSV,3,2,10,17,33,061,50,18,20,247,50,22,23,285,50,24,,,50*4A
$GPGSV,3,3,10,25,14,229,50,26,05,146,50*71
$GLGSV,1,1,00*65
$GNGLL,5159.37277,N,00059.49187,W,154923.00,A,A*6C
$GNRMC,154924.00,A,5159.37277,N,00059.49188,W,0.080,,040414,,,A*70
$GNVTG,,T,,M,0.080,N,0.149,K,A*39
$GNGGA,154924.00,5159.37277,N,00059.49188,W,1,08,0.90,113.9,M,46.8,M,,*50
$GNGSA,A,3,26,14,18,12,15,17,25,22,,,,,2.00,0.90,1.78*17
$GNGSA,A,3,,,,,,,,,,,,,2.00,0.90,1.78*19
$GPGSV,3,1,10,01,02,011,,12,50,220,50,14,21,312,50,15,37,168,50*73
$GPGSV,3,2,10,17,33,061,50,18,20,247,50,22,23,285,50,24,,,50*4A
$GPGSV,3,3,10,25,14,229,50,26,05,146,50*71
$GLGSV,1,1,00*65
$GNGLL,5159.37277,N,00059.49188,W,154924.00,A,A*64
$GNRMC,154925.00,A,5159.37277,N,00059.49188,W,0.078,,040414,,,A*76
$GNVTG,,T,,M,0.078,N,0.144,K,A*33
$GNGGA,154925.00,5159.37277,N,00059.49188,W,1,08,0.90,113.9,M,46.8,M,,*51
$GNGSA,A,3,26,14,18,12,15,17,25,22,,,,,2.00,0.90,1.78*17
$GNGSA,A,3,,,,,,,,,,,,,2.00,0.90,1.78*19
$GPGSV,3,1,10,01,02,011,,12,50,220,50,14,21,312,50,15,37,168,50*73
$GPGSV,3,2,10,17,33,061,50,18,20,247,50,22,23,285,50,24,,,50*4A
$GPGSV,3,3,10,25,14,229,50,26,05,146,50*71
$GLGSV,1,1,00*65
$GNGLL,5159.37277,N,00059.49188,W,154925.00,A,A*65
$GNRMC,154926.00,A,5159.37277,N,00059.49188,W,0.080,,040414,,,A*72
$GNVTG,,T,,M,0.080,N,0.148,K,A*38
$GNGGA,154926.00,5159.37277,N,00059.49188,W,1,08,0.90,113.9,M,46.8,M,,*52
$GNGSA,A,3,26,14,18,12,15,17,25,22,,,,,2.00,0.90,1.78*17
$GNGSA,A,3,,,,,,,,,,,,,2.00,0.90,1.78*19
$GPGSV,3,1,10,01,02,011,,12,50,220,50,14,21,312,50,15,37,168,50*73
$GPGSV,3,2,10,17,33,061,50,18,20,247,50,22,23,285,50,24,,,50*4A
$GPGSV,3,3,10,25,14,229,50,26,05,146,50*71
$GLGSV,1,1,00*65
$GNGLL,5159.37277,N,00059.49188,W,154926.00,A,A*66
$GNRMC,154927.00,A,5159.37277,N,00059.49188,W,0.076,,040414,,,A*7A
$GNVTG,,T,,M,0.076,N,0.142,K,A*3B
$GNGGA,154927.00,5159.37277,N,00059.49188,W,1,08,0.90,113.9,M,46.8,M,,*53
$GNGSA,A,3,26,14,18,12,15,17,25,22,,,,,2.00,0.90,1.78*17
$GNGSA,A,3,,,,,,,,,,,,,2.00,0.90,1.78*19
$GPGSV,3,1,10,01,02,011,,12,50,220,50,14,21,312,50,15,37,168,50*73
$GPGSV,3,2,10,17,33,061,50,18,20,247,50,22,23,285,50,24,,,50*4A
$GPGSV,3,3,10,25,14,229,50,26,05,146,50*71
$GLGSV,1,1,00*65
$GNGLL,5159.37277,N,00059.49188,W,154927.00,A,A*67
$GNRMC,154928.00,A,5159.37277,N,00059.49189,W,0.076,,040414,,,A*74
$GNVTG,,T,,M,0.076,N,0.140,K,A*39
$GNGGA,154928.00,5159.37277,N,00059.49189,W,1,08,0.90,113.9,M,46.8,M,,*5D
$GNGSA,A,3,26,14,18,12,15,17,25,22,,,,,2.00,0.90,1.78*17
$GNGSA,A,3,,,,,,,,,,,,,2.00,0.90,1.78*19
$GPGSV,3,1,10,01,02,011,,12,50,220,50,14,21,312,50,15,37,168,50*73
$GPGSV,3,2,10,17,33,061,50,18,20,247,50,22,23,285,50,24,,,50*4A
$GPGSV,3,3,10,25,14,229,50,26,05,146,50*71
$GLGSV,1,1,00*65
$GNGLL,5159.37277,N,00059.49189,W,154928.00,A,A*69
$GNRMC,154929.00,A,5159.37277,N,00059.49189,W,0.076,,040414,,,A*75
$GNVTG,,T,,M,0.076,N,0.140,K,A*39
$GNGGA,154929.00,5159.37277,N,00059.49189,W,1,08,0.90,113.9,M,46.8,M,,*5C
$GNGSA,A,3,26,14,18,12,15,17,25,22,,,,,2.00,0.90,1.78*17
$GNGSA,A,3,,,,,,,,,,,,,2.00,0.90,1.78*19
$GPGSV,3,1,10,01,02,011,,12,50,220,50,14,21,312,50,15,37,168,50*73
$GPGSV,3,2,10,17,33,061,50,18,20,247,50,22,23,285,50,24,,,50*4A
$GPGSV,3,3,10,25,14,229,50,26,05,146,50*71
$GLGSV,1,1,00*65
$GNGLL,5159.37277,N,00059.49189,W,154929.00,A,A*68
$GNRMC,154930.00,A,5159.37278,N,00059.49189,W,0.075,,040414,,,A*71
$GNVTG,,T,,M,0.075,N,0.138,K,A*35
$GNGGA,154930.00,5159.37278,N,00059.49189,W,1,08,0.90,113.9,M,46.8,M,,*5B
$GNGSA,A,3,26,14,18,12,15,17,25,22,,,,,2.00,0.90,1.78*17
$GNGSA,A,3,,,,,,,,,,,,,2.00,0.90,1.78*19
$GPGSV,3,1,10,01,02,011,,12,50,220,50,14,21,312,50,15,37,168,50*73
$GPGSV,3,2,10,17,33,061,50,18,20,247,50,22,23,285,50,24,,,50*4A
$GPGSV,3,3,10,25,14,229,50,26,05,146,50*71
$GLGSV,1,1,00*65
$GNGLL,5159.37278,N,00059.49189,W,154930.00,A,A*6F
$GNRMC,154931.00,A,5159.37278,N,00059.49189,W,0.072,,040414,,,A*77
$GNVTG,,T,,M,0.072,N,0.134,K,A*3E
$GNGGA,154931.00,5159.37278,N,00059.49189,W,1,08,0.90,113.9,M,46.8,M,,*5A
$GNGSA,A,3,26,14,18,12,15,17,25,22,,,,,2.00,0.90,1.78*17
$GNGSA,A,3,,,,,,,,,,,,,2.00,0.90,1.78*19
$GPGSV,3,1,10,01,02,011,,12,50,220,50,14,21,312,50,15,37,168,50*73
$GPGSV,3,2,10,17,33,061,50,18,20,247,50,22,23,285,50,24,,,50*4A
$GPGSV,3,3,10,25,14,229,50,26,05,146,50*71
$GLGSV,1,1,00*65
$GNGLL,5159.37278,N,00059.49189,W,154931.00,A,A*6E
$GNRMC,154932.00,A,5159.37278,N,00059.49189,W,0.072,,040414,,,A*74
$GNVTG,,T,,M,0.072,N,0.134,K,A*3E
$GNGGA,154932.00,5159.37278,N,00059.49189,W,1,09,0.89,113.9,M,46.8,M,,*50
$GNGSA,A,3,26,24,14,18,12,15,17,25,22,,,,1.60,0.89,1.32*12
$GNGSA,A,3,,,,,,,,,,,,,1.60,0.89,1.32*1A
$GPGSV,3,1,10,01,02,011,,12,50,220,50,14,21,312,50,15,37,168,50*73
$GPGSV,3,2,10,17,33,061,50,18,20,247,50,22,23,285,50,24,85,061,50*70
$GPGSV,3,3,10,25,14,229,50,26,05,146,50*71
$GLGSV,1,1,00*65
$GNGLL,5159.37278,N,00059.49189,W,154932.00,A,A*6D
$GNRMC,154933.00,A,5159.37277,N,00059.49189,W,0.077,,040414,,,A*7F
$GNVTG,,T,,M,0.077,N,0.142,K,A*3A
$GNGGA,154933.00,5159.37277,N,00059.49189,W,1,09,0.89,113.9,M,46.8,M,,*5E
$GNGSA,A,3,26,24,14,18,12,15,17,25,22,,,,1.60,0.89,1.32*12
$GNGSA,A,3,,,,,,,,,,,,,1.60,0.89,1.32*1A
$GPGSV,3,1,10,01,02,011,,12,50,220,50,14,21,312,49,15,37,168,50*7B
$GPGSV,3,2,10,17,33,061,50,18,20,247,50,22,23,285,50,24,85,061,50*70
$GPGSV,3,3,10,25,14,229,50,26,05,146,50*71
$GLGSV,1,1,00*65
$GNGLL,5159.37277,N,00059.49189,W,154933.00,A,A*63
$GNRMC,154934.00,A,5159.37277,N,00059.49189,W,0.072,,040414,,,A*7D
$GNVTG,,T,,M,0.072,N,0.134,K,A*3E
$GNGGA,154934.00,5159.37277,N,00059.49189,W,1,09,0.89,113.9,M,46.8,M,,*59
$GNGSA,A,3,26,24,14,18,12,15,17,25,22,,,,1.60,0.89,1.32*12
$GNGSA,A,3,,,,,,,,,,,,,1.60,0.89,1.32*1A
$GPGSV,3,1,10,01,02,011,,12,50,220,50,14,21,312,50,15,37,168,50*73
$GPGSV,3,2,10,17,33,061,50,18,20,247,50,22,23,285,50,24,85,061,50*70
$GPGSV,3,3,10,25,14,229,50,26,05,146,50*71
$GLGSV,1,1,00*65
$GNGLL,5159.37277,N,00059.49189,W,154934.00,A,A*64
$GNRMC,154935.00,A,5159.37277,N,00059.49189,W,0.072,,040414,,,A*7C
$GNVTG,,T,,M,0.072,N,0.134,K,A*3E
$GNGGA,154935.00,5159.37277,N,00059.49189,W,1,09,0.89,113.9,M,46.8,M,,*58
$GNGSA,A,3,26,24,14,18,12,15,17,25,22,,,,1.60,0.89,1.32*12
$GNGSA,A,3,,,,,,,,,,,,,1.60,0.89,1.32*1A
$GPGSV,3,1,10,01,02,011,,12,50,220,50,14,21,312,50,15,37,168,50*73
$GPGSV,3,2,10,17,33,061,50,18,20,247,50,22,23,285,50,24,85,061,50*70
$GPGSV,3,3,10,25,14,229,50,26,05,146,50*71
$GLGSV,1,1,00*65
$GNGLL,5159.37277,N,00059.49189,W,154935.00,A,A*65
$GNRMC,154936.00,A,5159.37277,N,00059.49189,W,0.071,,040414,,,A*7C
$GNVTG,,T,,M,0.071,N,0.131,K,A*38
$GNGGA,154936.00,5159.37277,N,00059.49189,W,1,09,0.89,113.9,M,46.8,M,,*5B
$GNGSA,A,3,26,24,14,18,12,15,17,25,22,,,,1.60,0.89,1.32*12
$GNGSA,A,3,,,,,,,,,,,,,1.60,0.89,1.32*1A
$GPGSV,3,1,10,01,02,011,,12,50,220,50,14,21,312,50,15,37,168,50*73
$GPGSV,3,2,10,17,33,061,50,18,20,247,50,22,23,285,50,24,85,061,50*70
$GPGSV,3,3,10,25,14,229,50,26,05,146,50*71
$GLGSV,1,1,00*65
$GNGLL,5159.37277,N,00059.49189,W,154936.00,A,A*66
$GNRMC,154937.00,A,5159.37277,N,00059.49189,W,0.074,,040414,,,A*78
$GNVTG,,T,,M,0.074,N,0.137,K,A*3B
$GNGGA,154937.00,5159.37277,N,00059.49189,W,1,09,0.89,113.9,M,46.8,M,,*5A
$GNGSA,A,3,26,24,14,18,12,15,17,25,22,,,,1.60,0.89,1.32*12
$GNGSA,A,3,,,,,,,,,,,,,1.60,0.89,1.32*1A
$GPGSV,3,1,10,01,02,011,,12,50,220,50,14,21,312,50,15,37,168,50*73
$GPGSV,3,2,10,17,33,061,50,18,20,247,50,22,23,285,50,24,85,061,50*70
$GPGSV,3,3,10,25,14,229,50,26,05,146,50*71
$GLGSV,1,1,00*65
$GNGLL,5159.37277,N,00059.49189,W,154937.00,A,A*67
$GNRMC,154938.00,A,5159.37277,N,00059.49188,W,0.067,,040414,,,A*74
$GNVTG,,T,,M,0.067,N,0.125,K,A*3A
$GNGGA,154938.00,5159.37277,N,00059.49188,W,1,09,0.89,113.9,M,46.8,M,,*54
$GNGSA,A,3,26,24,14,18,12,15,17,25,22,,,,1.60,0.89,1.32*12
$GNGSA,A,3,,,,,,,,,,,,,1.60,0.89,1.32*1A
$GPGSV,3,1,10,01,02,011,,12,50,220,50,14,21,312,50,15,37,168,50*73
$GPGSV,3,2,10,17,33,061,50,18,20,247,50,22,23,285,50,24,85,061,50*70
$GPGSV,3,3,10,25,14,229,50,26,05,146,50*71
$GLGSV,1,1,00*65
$GNGLL,5159.37277,N,00059.49188,W,154938.00,A,A*69
$GNRMC,154939.00,A,5159.37277,N,00059.49188,W,0.073,,040414,,,A*70
$GNVTG,,T,,M,0.073,N,0.135,K,A*3E
$GNGGA,154939.00,5159.37277,N,00059.49188,W,1,09,0.89,114.0,M,46.8,M,,*5B
$GNGSA,A,3,26,24,14,18,12,15,17,25,22,,,,1.60,0.89,1.32*12
$GNGSA,A,3,,,,,,,,,,,,,1.60,0.89,1.32*1A
$GPGSV,3,1,10,01,02,011,,12,50,220,50,14,21,312,50,15,37,168,50*73
$GPGSV,3,2,10,17,33,061,50,18,20,247,50,22,23,285,49,24,85,061,50*78
$GPGSV,3,3,10,25,14,229,50,26,05,146,50*71
$GLGSV,1,1,00*65
$GNGLL,5159.37277,N,00059.49188,W,154939.00,A,A*68
$GNRMC,154940.00,A,5159.37277,N,00059.49188,W,0.072,,040414,,,A*7F
$GNVTG,,T,,M,0.072,N,0.134,K,A*3E
$GNGGA,154940.00,5159.37277,N,00059.49188,W,1,09,0.89,114.0,M,46.8,M,,*55
$GNGSA,A,3,26,24,14,18,12,15,17,25,22,,,,1.60,0.89,1.32*12
$GNGSA,A,3,,,,,,,,,,,,,1.60,0.89,1.32*1A
$GPGSV,3,1,10,01,02,011,,12,50,220,50,14,21,312,50,15,37,168,50*73
$GPGSV,3,2,10,17,33,061,50,18,20,247,50,22,23,285,50,24,85,061,50*70
$GPGSV,3,3,10,25,14,229,50,26,05,146,50*71
$GLGSV,1,1,00*65
$GNGLL,5159.37277,N,00059.49188,W,154940.00,A,A*66
$GNRMC,154941.00,A,5159.37276,N,00059.49188,W,0.073,,040414,,,A*7E
$GNVTG,,T,,M,0.073,N,0.136,K,A*3D
$GNGGA,154941.00,5159.37276,N,00059.49188,W,1,09,0.89,114.0,M,46.8,M,,*55
$GNGSA,A,3,26,24,14,18,12,15,17,25,22,,,,1.60,0.89,1.32*12
$GNGSA,A,3,,,,,,,,,,,,,1.60,0.89,1.32*1A
$GPGSV,3,1,10,01,02,011,,12,50,220,50,14,21,312,50,15,37,168,50*73
$GPGSV,3,2,10,17,33,061,50,18,20,247,50,22,23,285,50,24,85,061,50*70
$GPGSV,3,3,10,25,14,229,50,26,05,146,50*71
$GLGSV,1,1,00*65
$GNGLL,5159.37276,N,00059.49188,W,154941.00,A,A*66
$GNRMC,154942.00,A,5159.37276,N,00059.49188,W,0.072,,040414,,,A*7C
$GNVTG,,T,,M,0.072,N,0.134,K,A*3E
$GNGGA,154942.00,5159.37276,N,00059.49188,W,1,09,0.89,114.0,M,46.8,M,,*56
$GNGSA,A,3,26,24,14,18,12,15,17,25,22,,,,1.60,0.89,1.32*12
$GNGSA,A,3,,,,,,,,,,,,,1.60,0.89,1.32*1A
$GPGSV,3,1,10,01,02,011,,12,50,220,50,14,21,312,50,15,37,168,50*73
$GPGSV,3,2,10,17,33,061,50,18,20,247,50,22,23,285,50,24,85,061,50*70
$GPGSV,3,3,10,25,14,229,50,26,05,146,50*71
$GLGSV,1,1,00*65
$GNGLL,5159.37276,N,00059.49188,W,154942.00,A,A*65
$GNRMC,154943.00,A,5159.37276,N,00059.49188,W,0.077,,040414,,,A*78
$GNVTG,,T,,M,0.077,N,0.143,K,A*3B
$GNGGA,154943.00,5159.37276,N,00059.49188,W,1,09,0.89,114.0,M,46.8,M,,*57
$GNGSA,A,3,26,24,14,18,12,15,17,25,22,,,,1.60,0.89,1.32*12
$GNGSA,A,3,,,,,,,,,,,,,1.60,0.89,1.32*1A
$GPGSV,3,1,10,01,02,011,,12,50,220,50,14,21,312,50,15,37,168,50*73
$GPGSV,3,2,10,17,33,061,50,18,20,247,50,22,23,285,50,24,85,061,50*70
$GPGSV,3,3,10,25,14,229,50,26,05,146,50*71
$GLGSV,1,1,00*65
$GNGLL,5159.37276,N,00059.49188,W,154943.00,A,A*64
$GNRMC,154944.00,A,5159.37276,N,00059.49188,W,0.078,,040414,,,A*70
$GNVTG,,T,,M,0.078,N,0.144,K,A*33
$GNGGA,154944.00,5159.37276,N,00059.49188,W,1,09,0.89,114.0,M,46.8,M,,*50
$GNGSA,A,3,26,24,14,18,12,15,17,25,22,,,,1.60,0.89,1.32*12
$GNGSA,A,3,,,,,,,,,,,,,1.60,0.89,1.32*1A
$GPGSV,3,1,10,01,02,011,,12,50,220,50,14,21,312,50,15,37,168,50*73
$GPGSV,3,2,10,17,33,061,50,18,20,247,50,22,23,285,50,24,85,062,50*73
$GPGSV,3,3,10,25,14,229,50,26,05,146,50*71
$GLGSV,1,1,00*65
$GNGLL,5159.37276,N,00059.49188,W,154944.00,A,A*63
$GNRMC,154945.00,A,5159.37276,N,00059.49189,W,0.072,,040414,,,A*7A
$GNVTG,,T,,M,0.072,N,0.133,K,A*39
$GNGGA,154945.00,5159.37276,N,00059.49189,W,1,09,0.89,114.0,M,46.8,M,,*50
$GNGSA,A,3,26,24,14,18,12,15,17,25,22,,,,1.60,0.89,1.32*12
$GNGSA,A,3,,,,,,,,,,,,,1.60,0.89,1.32*1A
$GPGSV,3,1,10,01,02,011,,12,50,220,50,14,21,312,50,15,37,168,50*73
$GPGSV,3,2,10,17,33,061,50,18,20,247,50,22,23,285,50,24,85,062,50*73
$GPGSV,3,3,10,25,14,229,50,26,05,146,50*71
$GLGSV,1,1,00*65
$GNGLL,5159.37276,N,00059.49189,W,154945.00,A,A*63
$GNRMC,154946.00,A,5159.37276,N,00059.49189,W,0.073,,040414,,,A*78
$GNVTG,,T,,M,0.073,N,0.135,K,A*3E
$GNGGA,154946.00,5159.37276,N,00059.49189,W,1,09,0.89,114.0,M,46.8,M,,*53
$GNGSA,A,3,26,24,14,18,12,15,17,25,22,,,,1.60,0.89,1.32*12
$GNGSA,A,3,,,,,,,,,,,,,1.60,0.89,1.32*1A
$GPGSV,3,1,10,01,02,011,,12,50,220,50,14,21,312,50,15,37,168,50*73
$GPGSV,3,2,10,17,33,061,50,18,20,247,50,22,23,285,50,24,85,062,50*73
$GPGSV,3,3,10,25,14,229,50,26,05,146,50*71
$GLGSV,1,1,00*65
$GNGLL,5159.37276,N,00059.49189,W,154946.00,A,A*60
$GNRMC,154947.00,A,5159.37275,N,00059.49189,W,0.074,,040414,,,A*7D
$GNVTG,,T,,M,0.074,N,0.136,K,A*3A
$GNGGA,154947.00,5159.37275,N,00059.49189,W,1,09,0.89,114.0,M,46.8,M,,*51
$GNGSA,A,3,26,24,14,18,12,15,17,25,22,,,,1.60,0.89,1.32*12
$GNGSA,A,3,,,,,,,,,,,,,1.60,0.89,1.32*1A
$GPGSV,3,1,10,01,02,011,,12,50,220,50,14,21,312,50,15,37,168,50*73
$GPGSV,3,2,10,17,33,061,50,18,20,247,50,22,23,285,50,24,85,062,50*73
$GPGSV,3,3,10,25,14,229,50,26,05,146,50*71
$GLGSV,1,1,00*65
$GNGLL,5159.37275,N,00059.49189,W,154947.00,A,A*62
$GNRMC,154948.00,A,5159.37275,N,00059.49190,W,0.068,,040414,,,A*77
$GNVTG,,T,,M,0.068,N,0.126,K,A*36
$GNGGA,154948.00,5159.37275,N,00059.49190,W,1,09,0.89,114.0,M,46.8,M,,*56
$GNGSA,A,3,26,24,14,18,12,15,17,25,22,,,,1.60,0.89,1.32*12
$GNGSA,A,3,,,,,,,,,,,,,1.60,0.89,1.32*1A
$GPGSV,3,1,10,01,02,011,,12,50,220,50,14,21,312,50,15,37,168,50*73
$GPGSV,3,2,10,17,33,061,50,18,20,247,50,22,23,285,50,24,85,062,50*73
$GPGSV,3,3,10,25,14,229,50,26,05,146,50*71
$GLGSV,1,1,00*65
$GNGLL,5159.37275,N,00059.49190,W,154948.00,A,A*65
$GNRMC,154949.00,A,5159.37275,N,00059.49190,W,0.077,,040414,,,A*78
$GNVTG,,T,,M,0.077,N,0.142,K,A*3A
$GNGGA,154949.00,5159.37275,N,00059.49190,W,1,09,0.89,114.0,M,46.8,M,,*57
$GNGSA,A,3,26,24,14,18,12,15,17,25,22,,,,1.60,0.89,1.32*12
$GNGSA,A,3,,,,,,,,,,,,,1.60,0.89,1.32*1A
$GPGSV,3,1,10,01,02,011,,12,50,220,50,14,21,312,50,15,37,168,50*73
$GPGSV,3,2,10,17,33,061,50,18,20,247,50,22,23,285,50,24,85,062,50*73
$GPGSV,3,3,10,25,14,229,50,26,05,146,50*71
$GLGSV,1,1,00*65
$GNGLL,5159.37275,N,00059.49190,W,154949.00,A,A*64
$GNRMC,154950.00,A,5159.37275,N,00059.49190,W,0.073,,040414,,,A*74
$GNVTG,,T,,M,0.073,N,0.136,K,A*3D
$GNGGA,154950.00,5159.37275,N,00059.49190,W,1,09,0.89,114.0,M,46.8,M,,*5F
$GNGSA,A,3,26,24,14,18,12,15,17,25,22,,,,1.60,0.89,1.32*12
$GNGSA,A,3,,,,,,,,,,,,,1.60,0.89,1.32*1A
$GPGSV,3,1,10,01,02,011,,12,50,220,50,14,21,312,50,15,37,168,50*73
$GPGSV,3,2,10,17,33,061,50,18,20,247,50,22,23,285,50,24,85,062,50*73
$GPGSV,3,3,10,25,14,229,50,26,05,146,50*71
$GLGSV,1,1,00*65
$GNGLL,5159.37275,N,00059.49190,W,154950.00,A,A*6C
$GNRMC,154951.00,A,5159.37275,N,00059.49190,W,0.074,,040414,,,A*72
$GNVTG,,T,,M,0.074,N,0.137,K,A*3B
$GNGGA,154951.00,5159.37275,N,00059.49190,W,1,09,0.89,114.0,M,46.8,M,,*5E
$GNGSA,A,3,26,24,14,18,12,15,17,25,22,,,,1.60,0.89,1.32*12
$GNGSA,A,3,,,,,,,,,,,,,1.60,0.89,1.32*1A
$GPGSV,3,1,10,01,02,011,,12,50,220,50,14,21,312,50,15,37,168,50*73
$GPGSV,3,2,10,17,33,061,50,18,20,247,50,22,23,285,50,24,85,062,50*73
$GPGSV,3,3,10,25,14,229,50,26,05,146,50*71
$GLGSV,1,1,00*65
$GNGLL,5159.37275,N,00059.49190,W,154951.00,A,A*6D
$GNRMC,154952.00,A,5159.37275,N,00059.49189,W,0.074,,040414,,,A*79
$GNVTG,,T,,M,0.074,N,0.137,K,A*3B
$GNGGA,154952.00,5159.37275,N,00059.49189,W,1,09,0.89,114.0,M,46.8,M,,*55
$GNGSA,A,3,26,24,14,18,12,15,17,25,22,,,,1.60,0.89,1.32*12
$GNGSA,A,3,,,,,,,,,,,,,1.60,0.89,1.32*1A
$GPGSV,3,1,10,01,02,011,,12,50,220,50,14,21,312,50,15,37,168,50*73
$GPGSV,3,2,10,17,33,061,50,18,20,247,50,22,23,285,50,24,85,062,50*73
$GPGSV,3,3,10,25,14,229,50,26,05,146,50*71
$GLGSV,1,1,00*65
$GNGLL,5159.37275,N,00059.49189,W,154952.00,A,A*66
$GNRMC,154953.00,A,5159.37274,N,00059.49189,W,0.073,,040414,,,A*7E
$GNVTG,,T,,M,0.073,N,0.135,K,A*3E
$GNGGA,154953.00,5159.37274,N,00059.49189,W,1,09,0.89,114.0,M,46.8,M,,*55
$GNGSA,A,3,26,24,14,18,12,15,17,25,22,,,,1.60,0.89,1.32*12
$GNGSA,A,3,,,,,,,,,,,,,1.60,0.89,1.32*1A
$GPGSV,3,1,10,01,02,011,,12,50,220,50,14,21,312,50,15,37,168,50*73
$GPGSV,3,2,10,17,33,061,50,18,20,247,50,22,23,285,50,24,85,062,50*73
$GPGSV,3,3,10,25,14,229,50,26,05,146,50*71
$GLGSV,1,1,00*65
$GNGLL,5159.37274,N,00059.49189,W,154953.00,A,A*66
$GNRMC,154954.00,A,5159.37275,N,00059.49190,W,0.081,,040414,,,A*7D
$GNVTG,,T,,M,0.081,N,0.150,K,A*30
$GNGGA,154954.00,5159.37275,N,00059.49190,W,1,08,1.07,114.1,M,46.8,M,,*5C
$GNGSA,A,3,24,14,18,12,15,17,25,22,,,,,2.10,1.07,1.80*1C
$GNGSA,A,3,,,,,,,,,,,,,2.10,1.07,1.80*10
$GPGSV,3,1,10,01,02,011,,12,50,220,50,14,21,312,50,15,37,168,50*73
$GPGSV,3,2,10,17,33,061,50,18,20,247,50,22,23,285,50,24,85,062,50*73
$GPGSV,3,3,10,25,14,229,50,26,05,146,50*71
$GLGSV,1,1,00*65
$GNGLL,5159.37275,N,00059.49190,W,154954.00,A,A*68
$GNRMC,154955.00,A,5159.37275,N,00059.49190,W,0.069,,040414,,,A*7A
$GNVTG,,T,,M,0.069,N,0.128,K,A*39
$GNGGA,154955.00,5159.37275,N,00059.49190,W,1,08,1.07,114.1,M,46.8,M,,*5D
$GNGSA,A,3,24,14,18,12,15,17,25,22,,,,,2.10,1.07,1.80*1C
$GNGSA,A,3,,,,,,,,,,,,,2.10,1.07,1.80*10
$GPGSV,3,1,10,01,02,011,,12,50,220,50,14,21,312,50,15,37,168,50*73
$GPGSV,3,2,10,17,33,061,50,18,20,247,50,22,23,285,50,24,85,062,50*73
$GPGSV,3,3,10,25,14,229,50,26,05,146,50*71
$GLGSV,1,1,00*65
$GNGLL,5159.37275,N,00059.49190,W,154955.00,A,A*69
$GNRMC,154956.00,A,5159.37275,N,00059.49190,W,0.064,,040414,,,A*74
$GNVTG,,T,,M,0.064,N,0.119,K,A*36
$GNGGA,154956.00,5159.37275,N,00059.49190,W,1,08,1.07,114.1,M,46.8,M,,*5E
$GNGSA,A,3,24,14,18,12,15,17,25,22,,,,,2.10,1.07,1.80*1C
$GNGSA,A,3,,,,,,,,,,,,,2.10,1.07,1.80*10
$GPGSV,3,1,10,01,02,011,,12,50,220,50,14,21,312,50,15,37,168,50*73
$GPGSV,3,2,10,17,33,061,50,18,20,247,50,22,23,285,50,24,85,062,50*73
$GPGSV,3,3,10,25,14,229,50,26,05,146,50*71
$GLGSV,1,1,00*65
$GNGLL,5159.37275,N,00059.49190,W,154956.00,A,A*6A
$GNRMC,154957.00,A,5159.37275,N,00059.49190,W,0.078,,040414,,,A*78
$GNVTG,,T,,M,0.078,N,0.144,K,A*33
$GNGGA,154957.00,5159.37275,N,00059.49190,W,1,08,1.07,114.1,M,46.8,M,,*5F
$GNGSA,A,3,24,14,18,12,15,17,25,22,,,,,2.10,1.07,1.80*1C
$GNGSA,A,3,,,,,,,,,,,,,2.10,1.07,1.80*10
$GPGSV,3,1,10,01,02,011,,12,50,220,51,14,21,312,50,15,37,168,50*72
$GPGSV,3,2,10,17,33,061,51,18,20,247,50,22,23,285,50,24,85,062,50*72
$GPGSV,3,3,10,25,14,229,50,26,05,146,07*73
$GLGSV,1,1,00*65
$GNGLL,5159.37275,N,00059.49190,W,154957.00,A,A*6B
$GNRMC,154958.00,A,5159.37275,N,00059.49191,W,0.083,,040414,,,A*72
$GNVTG,,T,,M,0.083,N,0.153,K,A*31
$GNGGA,154958.00,5159.37275,N,00059.49191,W,1,08,1.07,114.1,M,46.8,M,,*51
$GNGSA,A,3,24,14,18,12,15,17,25,22,,,,,2.10,1.07,1.80*1C
$GNGSA,A,3,,,,,,,,,,,,,2.10,1.07,1.80*10
$GPGSV,3,1,10,01,02,011,,12,50,220,51,14,21,312,50,15,37,168,50*72
$GPGSV,3,2,10,17,33,061,51,18,20,247,50,22,23,285,50,24,85,062,50*72
$GPGSV,3,3,10,25,14,229,51,26,05,146,05*70
$GLGSV,1,1,00*65
$GNGLL,5159.37275,N,00059.49191,W,154958.00,A,A*65
$GNRMC,154959.00,A,5159.37275,N,00059.49192,W,0.071,,040414,,,A*7D
$GNVTG,,T,,M,0.071,N,0.131,K,A*38
$GNGGA,154959.00,5159.37275,N,00059.49192,W,1,08,1.07,114.1,M,46.8,M,,*53
$GNGSA,A,3,24,14,18,12,15,17,25,22,,,,,2.10,1.07,1.80*1C
$GNGSA,A,3,,,,,,,,,,,,,2.10,1.07,1.80*10
$GPGSV,3,1,10,01,02,011,,12,50,220,51,14,21,312,51,15,37,168,51*72
$GPGSV,3,2,10,17,33,061,51,18,20,247,50,22,23,285,51,24,85,062,50*73
$GPGSV,3,3,10,25,14,229,51,26,05,146,*75
$GLGSV,1,1,00*65
$GNGLL,5159.37275,N,00059.49192,W,154959.00,A,A*67
$GNRMC,155000.00,A,5159.37276,N,00059.49192,W,0.074,,040414,,,A*7F
$GNVTG,,T,,M,0.074,N,0.138,K,A*34
$GNGGA,155000.00,5159.37276,N,00059.49192,W,1,08,1.07,114.1,M,46.8,M,,*54
$GNGSA,A,3,24,14,18,12,15,17,25,22,,,,,2.10,1.07,1.80*1C
$GNGSA,A,3,,,,,,,,,,,,,2.10,1.07,1.80*10
$GPGSV,3,1,10,01,02,011,,12,50,220,51,14,21,312,51,15,37,168,51*72
$GPGSV,3,2,10,17,33,061,51,18,20,247,50,22,23,285,51,24,85,062,51*72
$GPGSV,3,3,10,25,14,229,51,26,05,146,*75
$GLGSV,1,1,00*65
$GNGLL,5159.37276,N,00059.49192,W,155000.00,A,A*60
$GNRMC,155001.00,A,5159.37276,N,00059.49193,W,0.074,,040414,,,A*7F
$GNVTG,,T,,M,0.074,N,0.136,K,A*3A
$GNGGA,155001.00,5159.37276,N,00059.49193,W,1,08,1.07,114.2,M,46.8,M,,*57
$GNGSA,A,3,24,14,18,12,15,17,25,22,,,,,2.10,1.07,1.80*1C
$GNGSA,A,3,,,,,,,,,,,,,2.10,1.07,1.80*10
$GPGSV,3,1,10,01,02,011,,12,50,220,51,14,21,312,50,15,37,168,51*73
$GPGSV,3,2,10,17,33,061,51,18,20,247,50,22,23,285,50,24,85,062,51*73
$GPGSV,3,3,10,25,14,229,51,26,05,146,*75
$GLGSV,1,1,00*65
$GNGLL,5159.37276,N,00059.49193,W,155001.00,A,A*60
$GNRMC,155002.00,A,5159.37276,N,00059.49193,W,0.080,,040414,,,A*77
$GNVTG,,T,,M,0.080,N,0.147,K,A*37
$GNGGA,155002.00,5159.37276,N,00059.49193,W,1,08,1.07,114.2,M,46.8,M,,*54
$GNGSA,A,3,24,14,18,12,15,17,25,22,,,,,2.10,1.07,1.80*1C
$GNGSA,A,3,,,,,,,,,,,,,2.10,1.07,1.80*10
$GPGSV,3,1,10,01,02,011,,12,50,220,51,14,21,312,51,15,37,168,51*72
$GPGSV,3,2,10,17,33,061,51,18,20,247,51,22,23,285,51,24,85,062,51*73
$GPGSV,3,3,10,25,14,229,51,26,05,146,*75
$GLGSV,1,1,00*65
$GNGLL,5159.37276,N,00059.49193,W,155002.00,A,A*63
$GNRMC,155003.00,A,5159.37276,N,00059.49194,W,0.073,,040414,,,A*7D
$GNVTG,,T,,M,0.073,N,0.135,K,A*3E
$GNGGA,155003.00,5159.37276,N,00059.49194,W,1,08,1.07,114.2,M,46.8,M,,*52
$GNGSA,A,3,24,14,18,12,15,17,25,22,,,,,2.10,1.07,1.80*1C
$GNGSA,A,3,,,,,,,,,,,,,2.10,1.07,1.80*10
$GPGSV,3,1,10,01,02,011,,12,50,220,51,14,21,312,51,15,37,168,51*72
$GPGSV,3,2,10,17,33,061,51,18,20,247,50,22,23,285,51,24,85,062,51*72
$GPGSV,3,3,10,25,14,229,51,26,05,146,*75
$GLGSV,1,1,00*65
$GNGLL,5159.37276,N,00059.49194,W,155003.00,A,A*65
$GNRMC,155004.00,A,5159.37276,N,00059.49195,W,0.075,,040414,,,A*7D
$GNVTG,,T,,M,0.075,N,0.138,K,A*35
$GNGGA,155004.00,5159.37276,N,00059.49195,W,1,08,1.07,114.2,M,46.8,M,,*54
$GNGSA,A,3,24,14,18,12,15,17,25,22,,,,,2.10,1.07,1.80*1C
$GNGSA,A,3,,,,,,,,,,,,,2.10,1.07,1.80*10
$GPGSV,3,1,10,01,02,011,,12,50,220,51,14,21,312,51,15,37,168,51*72
$GPGSV,3,2,10,17,33,061,51,18,20,247,51,22,23,285,51,24,85,062,51*73
$GPGSV,3,3,10,25,14,229,51,26,05,146,*75
$GLGSV,1,1,00*65
$GNGLL,5159.37276,N,00059.49195,W,155004.00,A,A*63
$GNRMC,155005.00,A,5159.37276,N,00059.49196,W,0.070,,040414,,,A*7A
$GNVTG,,T,,M,0.070,N,0.129,K,A*30
$GNGGA,155005.00,5159.37276,N,00059.49196,W,1,08,1.07,114.2,M,46.8,M,,*56
$GNGSA,A,3,24,14,18,12,15,17,25,22,,,,,2.10,1.07,1.80*1C
$GNGSA,A,3,,,,,,,,,,,,,2.10,1.07,1.80*10
$GPGSV,3,1,10,01,02,011,,12,50,220,51,14,21,312,51,15,37,168,51*72
$GPGSV,3,2,10,17,33,061,51,18,20,247,51,22,23,285,51,24,85,062,51*73
$GPGSV,3,3,10,25,14,229,51,26,05,146,*75
$GLGSV,1,1,00*65
$GNGLL,5159.37276,N,00059.49196,W,155005.00,A,A*61
$GNRMC,155006.00,A,5159.37276,N,00059.49197,W,0.069,,040414,,,A*70
$GNVTG,,T,,M,0.069,N,0.127,K,A*36
$GNGGA,155006.00,5159.37276,N,00059.49197,W,1,08,1.07,114.2,M,46.8,M,,*54
$GNGSA,A,3,24,14,18,12,15,17,25,22,,,,,2.10,1.07,1.80*1C
$GNGSA,A,3,,,,,,,,,,,,,2.10,1.07,1.80*10
$GPGSV,3,1,10,01,02,010,,12,50,220,51,14,21,312,50,15,37,168,51*72
$GPGSV,3,2,10,17,33,061,51,18,20,247,50,22,23,285,50,24,85,062,51*73
$GPGSV,3,3,10,25,14,229,51,26,05,146,*75
$GLGSV,1,1,00*65
$GNGLL,5159.37276,N,00059.49197,W,155006.00,A,A*63
$GNRMC,155007.00,A,5159.37276,N,00059.49198,W,0.078,,040414,,,A*7E
$GNVTG,,T,,M,0.078,N,0.145,K,A*32
$GNGGA,155007.00,5159.37276,N,00059.49198,W,1,08,1.07,114.2,M,46.8,M,,*5A
$GNGSA,A,3,24,14,18,12,15,17,25,22,,,,,2.10,1.07,1.81*1D
$GNGSA,A,3,,,,,,,,,,,,,2.10,1.07,1.81*11
$GPGSV,3,1,10,01,02,010,,12,50,220,51,14,21,312,50,15,37,168,51*72
$GPGSV,3,2,10,17,33,061,51,18,20,247,50,22,23,285,50,24,85,062,51*73
$GPGSV,3,3,10,25,14,229,51,26,05,146,*75
$GLGSV,1,1,00*65
$GNGLL,5159.37276,N,00059.49198,W,155007.00,A,A*6D
$GNRMC,155008.00,A,5159.37276,N,00059.49199,W,0.072,,040414,,,A*7A
$GNVTG,,T,,M,0.072,N,0.133,K,A*39
$GNGGA,155008.00,5159.37276,N,00059.49199,W,1,08,1.07,114.3,M,46.8,M,,*55
$GNGSA,A,3,24,14,18,12,15,17,25,22,,,,,2.10,1.07,1.81*1D
$GNGSA,A,3,,,,,,,,,,,,,2.10,1.07,1.81*11
$GPGSV,3,1,10,01,02,010,,12,50,220,51,14,21,312,50,15,37,168,51*72
$GPGSV,3,2,10,17,33,061,51,18,20,247,50,22,23,285,51,24,85,062,51*72
$GPGSV,3,3,10,25,14,229,51,26,05,146,*75
$GLGSV,1,1,00*65
$GNGLL,5159.37276,N,00059.49199,W,155008.00,A,A*63
$GNRMC,155009.00,A,5159.37275,N,00059.49200,W,0.076,,040414,,,A*7F
$GNVTG,,T,,M,0.076,N,0.140,K,A*39
$GNGGA,155009.00,5159.37275,N,00059.49200,W,1,08,1.07,114.3,M,46.8,M,,*54
$GNGSA,A,3,24,14,18,12,15,17,25,22,,,,,2.10,1.07,1.81*1D
$GNGSA,A,3,,,,,,,,,,,,,2.10,1.07,1.81*11
$GPGSV,3,1,10,01,02,010,,12,50,220,51,14,21,312,50,15,37,168,51*72
$GPGSV,3,2,10,17,33,061,51,18,20,247,50,22,23,285,51,24,85,062,50*73
$GPGSV,3,3,10,25,14,229,51,26,05,146,*75
$GLGSV,1,1,00*65
$GNGLL,5159.37275,N,00059.49200,W,155009.00,A,A*62
$GNRMC,155010.00,A,5159.37275,N,00059.49201,W,0.063,,040414,,,A*72
$GNVTG,,T,,M,0.063,N,0.116,K,A*3E
$GNGGA,155010.00,5159.37275,N,00059.49201,W,1,08,1.07,114.3,M,46.8,M,,*5D
$GNGSA,A,3,24,14,18,12,15,17,25,22,,,,,2.10,1.07,1.81*1D
$GNGSA,A,3,,,,,,,,,,,,,2.10,1.07,1.81*11
$GPGSV,3,1,10,01,02,010,,12,50,220,51,14,21,312,50,15,37,168,50*73
$GPGSV,3,2,10,17,33,061,51,18,20,247,50,22,23,285,51,24,85,062,50*73
$GPGSV,3,3,10,25,14,229,51,26,05,146,*75
$GLGSV,1,1,00*65
$GNGLL,5159.37275,N,00059.49201,W,155010.00,A,A*6B
$GNRMC,155011.00,A,5159.37275,N,00059.49202,W,0.068,,040414,,,A*7B
$GNVTG,,T,,M,0.068,N,0.126,K,A*36
$GNGGA,155011.00,5159.37275,N,00059.49202,W,1,08,1.07,114.3,M,46.8,M,,*5F
$GNGSA,A,3,24,14,18,12,15,17,25,22,,,,,2.10,1.07,1.81*1D
$GNGSA,A,3,,,,,,,,,,,,,2.10,1.07,1.81*11
$GPGSV,3,1,10,01,02,010,,12,50,220,51,14,21,312,50,15,37,168,51*72
$GPGSV,3,2,10,17,33,061,51,18,20,247,50,22,23,285,51,24,85,062,50*73
$GPGSV,3,3,10,25,14,229,51,26,05,146,*75
$GLGSV,1,1,00*65
$GNGLL,5159.37275,N,00059.49202,W,155011.00,A,A*69
$GNRMC,155012.00,A,5159.37275,N,00059.49203,W,0.079,,040414,,,A*79
$GNVTG,,T,,M,0.079,N,0.145,K,A*33
$GNGGA,155012.00,5159.37275,N,00059.49203,W,1,08,1.07,114.3,M,46.8,M,,*5D
$GNGSA,A,3,24,14,18,12,15,17,25,22,,,,,2.10,1.07,1.81*1D
$GNGSA,A,3,,,,,,,,,,,,,2.10,1.07,1.81*11
$GPGSV,3,1,10,01,02,010,,12,50,220,51,14,21,312,50,15,37,168,51*72
$GPGSV,3,2,10,17,33,061,51,18,20,247,50,22,23,285,50,24,85,062,50*72
$GPGSV,3,3,10,25,14,229,51,26,05,146,*75
$GLGSV,1,1,00*65
$GNGLL,5159.37275,N,00059.49203,W,155012.00,A,A*6B
$GNRMC,155013.00,A,5159.37275,N,00059.49204,W,0.071,,040414,,,A*77
$GNVTG,,T,,M,0.071,N,0.132,K,A*3B
$GNGGA,155013.00,5159.37275,N,00059.49204,W,1,08,1.07,114.3,M,46.8,M,,*5B
$GNGSA,A,3,24,14,18,12,15,17,25,22,,,,,2.10,1.07,1.81*1D
$GNGSA,A,3,,,,,,,,,,,,,2.10,1.07,1.81*11
$GPGSV,3,1,10,01,02,010,,12,50,220,51,14,21,312,50,15,37,168,51*72
$GPGSV,3,2,10,17,33,061,51,18,20,247,50,22,23,285,51,24,85,062,50*73
$GPGSV,3,3,10,25,14,229,50,26,05,146,*74
$GLGSV,1,1,00*65
$GNGLL,5159.37275,N,00059.49204,W,155013.00,A,A*6D
$GNRMC,155014.00,A,5159.37275,N,00059.49205,W,0.076,,040414,,,A*76
$GNVTG,,T,,M,0.076,N,0.140,K,A*39
$GNGGA,155014.00,5159.37275,N,00059.49205,W,1,08,1.07,114.3,M,46.8,M,,*5D
$GNGSA,A,3,24,14,18,12,15,17,25,22,,,,,2.10,1.07,1.81*1D
$GNGSA,A,3,,,,,,,,,,,,,2.10,1.07,1.81*11
$GPGSV,3,1,10,01,02,010,,12,50,220,50,14,21,312,50,15,37,168,50*72
$GPGSV,3,2,10,17,33,061,51,18,20,247,50,22,23,285,50,24,85,062,50*72
$GPGSV,3,3,10,25,14,229,51,26,05,146,*75
$GLGSV,1,1,00*65
$GNGLL,5159.37275,N,00059.49205,W,155014.00,A,A*6B
$GNRMC,155015.00,A,5159.37275,N,00059.49206,W,0.067,,040414,,,A*74
$GNVTG,,T,,M,0.067,N,0.123,K,A*3C
$GNGGA,155015.00,5159.37275,N,00059.49206,W,1,08,1.07,114.4,M,46.8,M,,*58
$GNGSA,A,3,24,14,18,12,15,17,25,22,,,,,2.10,1.07,1.81*1D
$GNGSA,A,3,,,,,,,,,,,,,2.10,1.07,1.81*11
$GPGSV,3,1,10,01,02,010,,12,50,220,51,14,21,312,50,15,37,168,51*72
$GPGSV,3,2,10,17,33,061,51,18,20,247,50,22,23,285,51,24,85,062,50*73
$GPGSV,3,3,10,25,14,229,50,26,05,146,*74
$GLGSV,1,1,00*65
$GNGLL,5159.37275,N,00059.49206,W,155015.00,A,A*69
$GNRMC,155016.00,A,5159.37275,N,00059.49207,W,0.074,,040414,,,A*74
$GNVTG,,T,,M,0.074,N,0.136,K,A*3A
$GNGGA,155016.00,5159.37275,N,00059.49207,W,1,08,1.07,114.4,M,46.8,M,,*5A
$GNGSA,A,3,24,14,18,12,15,17,25,22,,,,,2.10,1.07,1.81*1D
$GNGSA,A,3,,,,,,,,,,,,,2.10,1.07,1.81*11
$GPGSV,3,1,10,01,02,010,,12,51,220,51,14,21,312,50,15,37,168,51*73
$GPGSV,3,2,10,17,33,061,51,18,20,247,50,22,23,285,50,24,85,062,50*72
$GPGSV,3,3,10,25,14,229,50,26,05,146,*74
$GLGSV,1,1,00*65
$GNGLL,5159.37275,N,00059.49207,W,155016.00,A,A*6B
$GNRMC,155017.00,A,5159.37275,N,00059.49208,W,0.074,,040414,,,A*7A
$GNVTG,,T,,M,0.074,N,0.138,K,A*34
$GNGGA,155017.00,5159.37275,N,00059.49208,W,1,08,1.07,114.4,M,46.8,M,,*54
$GNGSA,A,3,24,14,18,12,15,17,25,22,,,,,2.10,1.07,1.81*1D
$GNGSA,A,3,,,,,,,,,,,,,2.10,1.07,1.81*11
$GPGSV,3,1,10,01,02,010,,12,51,220,51,14,21,312,50,15,37,168,50*72
$GPGSV,3,2,10,17,33,061,51,18,20,247,50,22,23,285,50,24,85,062,50*72
$GPGSV,3,3,10,25,14,229,51,26,05,146,*75
$GLGSV,1,1,00*65
$GNGLL,5159.37275,N,00059.49208,W,155017.00,A,A*65
$GNRMC,155018.00,A,5159.37275,N,00059.49209,W,0.077,,040414,,,A*77
$GNVTG,,T,,M,0.077,N,0.142,K,A*3A
$GNGGA,155018.00,5159.37275,N,00059.49209,W,1,08,1.07,114.4,M,46.8,M,,*5A
$GNGSA,A,3,24,14,18,12,15,17,25,22,,,,,2.10,1.07,1.81*1D
$GNGSA,A,3,,,,,,,,,,,,,2.10,1.07,1.81*11
$GPGSV,3,1,10,01,02,010,,12,51,220,50,14,21,312,50,15,37,168,50*73
$GPGSV,3,2,10,17,33,061,50,18,20,247,50,22,23,285,50,24,85,062,50*73
$GPGSV,3,3,10,25,14,229,50,26,05,146,*74
$GLGSV,1,1,00*65
$GNGLL,5159.37275,N,00059.49209,W,155018.00,A,A*6B
$GNRMC,155019.00,A,5159.37275,N,00059.49210,W,0.070,,040414,,,A*79
$GNVTG,,T,,M,0.070,N,0.129,K,A*30
$GNGGA,155019.00,5159.37275,N,00059.49210,W,1,08,1.07,114.4,M,46.8,M,,*53
$GNGSA,A,3,24,14,18,12,15,17,25,22,,,,,2.10,1.07,1.81*1D
$GNGSA,A,3,,,,,,,,,,,,,2.10,1.07,1.81*11
$GPGSV,3,1,10,01,02,010,,12,51,220,51,14,21,312,50,15,36,168,51*72
$GPGSV,3,2,10,17,33,061,50,18,20,247,50,22,23,285,50,24,85,062,50*73
$GPGSV,3,3,10,25,14,229,51,26,05,146,*75
$GLGSV,1,1,00*65
$GNGLL,5159.37275,N,00059.49210,W,155019.00,A,A*62
$GNRMC,155020.00,A,5159.37275,N,00059.49211,W,0.077,,040414,,,A*75
$GNVTG,,T,,M,0.077,N,0.143,K,A*3B
$GNGGA,155020.00,5159.37275,N,00059.49211,W,1,08,1.07,114.4,M,46.8,M,,*58
$GNGSA,A,3,24,14,18,12,15,17,25,22,,,,,2.10,1.07,1.81*1D
$GNGSA,A,3,,,,,,,,,,,,,2.10,1.07,1.81*11
$GPGSV,3,1,10,01,02,010,,12,51,220,51,14,21,312,50,15,36,168,51*72
$GPGSV,3,2,10,17,33,061,50,18,20,247,50,22,23,285,50,24,85,062,50*73
$GPGSV,3,3,10,25,14,229,50,26,05,146,*74
$GLGSV,1,1,00*65
$GNGLL,5159.37275,N,00059.49211,W,155020.00,A,A*69
$GNRMC,155021.00,A,5159.37275,N,00059.49212,W,0.073,,040414,,,A*73
$GNVTG,,T,,M,0.073,N,0.135,K,A*3E
$GNGGA,155021.00,5159.37275,N,00059.49212,W,1,08,1.07,114.5,M,46.8,M,,*5B
$GNGSA,A,3,24,14,18,12,15,17,25,22,,,,,2.10,1.07,1.81*1D
$GNGSA,A,3,,,,,,,,,,,,,2.10,1.07,1.81*11
$GPGSV,3,1,10,01,02,010,,12,51,220,50,14,21,312,50,15,36,168,50*72
$GPGSV,3,2,10,17,33,061,50,18,20,247,50,22,23,285,50,24,85,062,50*73
$GPGSV,3,3,10,25,14,229,50,26,05,146,*74
$GLGSV,1,1,00*65
$GNGLL,5159.37275,N,00059.49212,W,155021.00,A,A*6B
$GNRMC,155022.00,A,5159.37275,N,00059.49213,W,0.072,,040414,,,A*70
$GNVTG,,T,,M,0.072,N,0.133,K,A*39
$GNGGA,155022.00,5159.37275,N,00059.49213,W,1,08,1.07,114.5,M,46.8,M,,*59
$GNGSA,A,3,24,14,18,12,15,17,25,22,,,,,2.10,1.07,1.81*1D
$GNGSA,A,3,,,,,,,,,,,,,2.10,1.07,1.81*11
$GPGSV,3,1,10,01,02,010,,12,51,220,50,14,21,312,50,15,36,168,50*72
$GPGSV,3,2,10,17,33,061,50,18,19,247,50,22,23,285,50,24,85,062,50*79
$GPGSV,3,3,10,25,14,229,50,26,05,146,*74
$GLGSV,1,1,00*65
$GNGLL,5159.37275,N,00059.49213,W,155022.00,A,A*69
$GNRMC,155023.00,A,5159.37275,N,00059.49214,W,0.074,,040414,,,A*70
$GNVTG,,T,,M,0.074,N,0.137,K,A*3B
$GNGGA,155023.00,5159.37275,N,00059.49214,W,1,08,1.07,114.5,M,46.8,M,,*5F
$GNGSA,A,3,24,14,18,12,15,17,25,22,,,,,2.10,1.07,1.81*1D
$GNGSA,A,3,,,,,,,,,,,,,2.10,1.07,1.81*11
$GPGSV,3,1,10,01,02,010,,12,51,220,50,14,21,312,50,15,36,168,50*72
$GPGSV,3,2,10,17,33,061,50,18,19,247,50,22,23,285,50,24,85,062,51*78
$GPGSV,3,3,10,25,14,229,50,26,05,146,*74
$GLGSV,1,1,00*65
$GNGLL,5159.37275,N,00059.49214,W,155023.00,A,A*6F
$GNRMC,155024.00,A,5159.37275,N,00059.49214,W,0.081,,040414,,,A*7D
$GNVTG,,T,,M,0.081,N,0.150,K,A*30
$GNGGA,155024.00,5159.37275,N,00059.49214,W,1,08,1.07,114.5,M,46.8,M,,*58
$GNGSA,A,3,24,14,18,12,15,17,25,22,,,,,2.10,1.07,1.81*1D
$GNGSA,A,3,,,,,,,,,,,,,2.10,1.07,1.81*11
$GPGSV,3,1,10,01,02,010,,12,51,220,50,14,21,312,50,15,36,168,50*72
$GPGSV,3,2,10,17,33,061,51,18,19,247,50,22,23,285,50,24,85,062,51*79
$GPGSV,3,3,10,25,14,229,51,26,05,146,*75
$GLGSV,1,1,00*65
$GNGLL,5159.37275,N,00059.49214,W,155024.00,A,A*68
$GNRMC,155025.00,A,5159.37275,N,00059.49215,W,0.075,,040414,,,A*76
$GNVTG,,T,,M,0.075,N,0.139,K,A*34
$GNGGA,155025.00,5159.37275,N,00059.49215,W,1,08,1.07,114.5,M,46.8,M,,*58
$GNGSA,A,3,24,14,18,12,15,17,25,22,,,,,2.10,1.07,1.81*1D
$GNGSA,A,3,,,,,,,,,,,,,2.10,1.07,1.81*11
$GPGSV,3,1,10,01,02,010,,12,51,220,51,14,21,312,51,15,36,168,51*73
$GPGSV,3,2,10,17,33,061,51,18,19,247,50,22,23,285,50,24,85,062,51*79
$GPGSV,3,3,10,25,14,229,51,26,05,146,*75
$GLGSV,1,1,00*65
$GNGLL,5159.37275,N,00059.49215,W,155025.00,A,A*68
$GNRMC,155026.00,A,5159.37275,N,00059.49217,W,0.070,,040414,,,A*72
$GNVTG,,T,,M,0.070,N,0.129,K,A*30
$GNGGA,155026.00,5159.37275,N,00059.49217,W,1,08,1.07,114.5,M,46.8,M,,*59
$GNGSA,A,3,24,14,18,12,15,17,25,22,,,,,2.10,1.07,1.81*1D
$GNGSA,A,3,,,,,,,,,,,,,2.10,1.07,1.81*11
$GPGSV,3,1,10,01,02,010,,12,51,220,51,14,21,312,51,15,36,168,51*73
$GPGSV,3,2,10,17,33,061,51,18,19,247,50,22,23,285,50,24,85,062,51*79
$GPGSV,3,3,10,25,14,229,51,26,05,146,*75
$GLGSV,1,1,00*65
$GNGLL,5159.37275,N,00059.49217,W,155026.00,A,A*69
$GNRMC,155027.00,A,5159.37275,N,00059.49217,W,0.076,,040414,,,A*75
$GNVTG,,T,,M,0.076,N,0.141,K,A*38
$GNGGA,155027.00,5159.37275,N,00059.49217,W,1,08,1.07,114.5,M,46.8,M,,*58
$GNGSA,A,3,24,14,18,12,15,17,25,22,,,,,2.10,1.07,1.81*1D
$GNGSA,A,3,,,,,,,,,,,,,2.10,1.07,1.81*11
$GPGSV,3,1,10,01,02,010,,12,51,220,51,14,21,312,51,15,36,168,50*72
$GPGSV,3,2,10,17,33,061,51,18,19,247,50,22,23,285,50,24,85,062,51*79
$GPGSV,3,3,10,25,14,229,51,26,05,146,*75
$GLGSV,1,1,00*65
$GNGLL,5159.37275,N,00059.49217,W,155027.00,A,A*68
$GNRMC,155028.00,A,5159.37275,N,00059.49218,W,0.079,,040414,,,A*7A
$GNVTG,,T,,M,0.079,N,0.146,K,A*30
$GNGGA,155028.00,5159.37275,N,00059.49218,W,1,08,1.07,114.5,M,46.8,M,,*58
$GNGSA,A,3,24,14,18,12,15,17,25,22,,,,,2.10,1.07,1.81*1D
$GNGSA,A,3,,,,,,,,,,,,,2.10,1.07,1.81*11
$GPGSV,3,1,10,01,02,010,,12,51,220,51,14,21,312,50,15,36,168,51*72
$GPGSV,3,2,10,17,33,061,51,18,19,247,50,22,23,285,50,24,85,065,51*7E
$GPGSV,3,3,10,25,14,229,51,26,05,146,*75
$GLGSV,1,1,00*65
$GNGLL,5159.37275,N,00059.49218,W,155028.00,A,A*68
$GNRMC,155029.00,A,5159.37275,N,00059.49219,W,0.076,,040414,,,A*75
$GNVTG,,T,,M,0.076,N,0.141,K,A*38
$GNGGA,155029.00,5159.37275,N,00059.49219,W,1,08,1.07,114.5,M,46.8,M,,*58
$GNGSA,A,3,24,14,18,12,15,17,25,22,,,,,2.10,1.07,1.81*1D
$GNGSA,A,3,,,,,,,,,,,,,2.10,1.07,1.81*11
$GPGSV,3,1,10,01,02,010,,12,51,220,51,14,21,312,50,15,36,168,50*73
$GPGSV,3,2,10,17,33,061,51,18,19,247,50,22,23,285,50,24,85,065,51*7E
$GPGSV,3,3,10,25,15,229,51,26,05,146,*74
$GLGSV,1,1,00*65
$GNGLL,5159.37275,N,00059.49219,W,155029.00,A,A*68
$GNRMC,155030.00,A,5159.37275,N,00059.49220,W,0.074,,040414,,,A*75
$GNVTG,,T,,M,0.074,N,0.137,K,A*3B
$GNGGA,155030.00,5159.37275,N,00059.49220,W,1,08,1.07,114.5,M,46.8,M,,*5A
$GNGSA,A,3,24,14,18,12,15,17,25,22,,,,,2.10,1.07,1.81*1D
$GNGSA,A,3,,,,,,,,,,,,,2.10,1.07,1.81*11
$GPGSV,3,1,11,01,02,010,,12,51,220,51,14,21,312,50,15,36,168,50*72
$GPGSV,3,2,11,17,33,061,50,18,19,247,50,22,23,285,50,24,85,065,51*7E
$GPGSV,3,3,11,25,15,229,50,26,05,146,,32,,,30*76
$GLGSV,1,1,00*65
$GNGLL,5159.37275,N,00059.49220,W,155030.00,A,A*6A
$GNRMC,155031.00,A,5159.37275,N,00059.49221,W,0.078,,040414,,,A*79
$GNVTG,,T,,M,0.078,N,0.144,K,A*33
$GNGGA,155031.00,5159.37275,N,00059.49221,W,1,08,1.07,114.5,M,46.8,M,,*5A
$GNGSA,A,3,24,14,18,12,15,17,25,22,,,,,2.10,1.07,1.81*1D
$GNGSA,A,3,,,,,,,,,,,,,2.10,1.07,1.81*11
$GPGSV,3,1,10,01,02,010,,12,51,220,50,14,21,312,50,15,36,168,51*73
$GPGSV,3,2,10,17,33,061,50,18,19,247,50,22,23,285,50,24,85,065,50*7E
$GPGSV,3,3,10,25,15,229,50,26,05,146,*75
$GLGSV,1,1,00*65
$GNGLL,5159.37275,N,00059.49221,W,155031.00,A,A*6A
$GNRMC,155032.00,A,5159.37275,N,00059.49222,W,0.073,,040414,,,A*72
$GNVTG,,T,,M,0.073,N,0.135,K,A*3E
$GNGGA,155032.00,5159.37275,N,00059.49222,W,1,08,1.07,114.6,M,46.8,M,,*59
$GNGSA,A,3,24,14,18,12,15,17,25,22,,,,,2.10,1.07,1.81*1D
$GNGSA,A,3,,,,,,,,,,,,,2.10,1.07,1.81*11
$GPGSV,3,1,10,01,02,010,,12,51,220,50,14,21,312,50,15,36,168,50*72
$GPGSV,3,2,10,17,33,061,50,18,19,247,50,22,23,285,50,24,85,065,50*7E
$GPGSV,3,3,10,25,15,229,50,26,05,146,*75
$GLGSV,1,1,00*65
$GNGLL,5159.37275,N,00059.49222,W,155032.00,A,A*6A
$GNRMC,155033.00,A,5159.37275,N,00059.49223,W,0.074,,040414,,,A*75
$GNVTG,,T,,M,0.074,N,0.136,K,A*3A
$GNGGA,155033.00,5159.37275,N,00059.49223,W,1,08,1.07,114.6,M,46.8,M,,*59
$GNGSA,A,3,24,14,18,12,15,17,25,22,,,,,2.10,1.07,1.81*1D
$GNGSA,A,3,,,,,,,,,,,,,2.10,1.07,1.81*11
$GPGSV,3,1,10,01,02,010,,12,51,220,50,14,21,312,50,15,36,168,50*72
$GPGSV,3,2,10,17,33,061,50,18,19,247,50,22,23,285,50,24,85,065,50*7E
$GPGSV,3,3,10,25,15,229,50,26,05,146,*75
$GLGSV,1,1,00*65
$GNGLL,5159.37275,N,00059.49223,W,155033.00,A,A*6A
$GNRMC,155034.00,A,5159.37275,N,00059.49224,W,0.067,,040414,,,A*77
$GNVTG,,T,,M,0.067,N,0.125,K,A*3A
$GNGGA,155034.00,5159.37275,N,00059.49224,W,1,08,1.07,114.6,M,46.8,M,,*59
$GNGSA,A,3,24,14,18,12,15,17,25,22,,,,,2.10,1.07,1.81*1D
$GNGSA,A,3,,,,,,,,,,,,,2.10,1.07,1.81*11
$GPGSV,3,1,10,01,02,010,,12,51,220,50,14,21,312,50,15,36,168,50*72
$GPGSV,3,2,10,17,33,061,50,18,19,247,50,22,23,285,50,24,85,065,50*7E
$GPGSV,3,3,10,25,15,229,50,26,05,146,*75
$GLGSV,1,1,00*65
$GNGLL,5159.37275,N,00059.49224,W,155034.00,A,A*6A
$GNRMC,155035.00,A,5159.37275,N,00059.49224,W,0.072,,040414,,,A*72
$GNVTG,,T,,M,0.072,N,0.133,K,A*39
$GNGGA,155035.00,5159.37275,N,00059.49224,W,1,08,1.07,114.6,M,46.8,M,,*58
$GNGSA,A,3,24,14,18,12,15,17,25,22,,,,,2.10,1.07,1.81*1D
$GNGSA,A,3,,,,,,,,,,,,,2.10,1.07,1.81*11
$GPGSV,3,1,10,01,02,010,,12,51,220,50,14,21,312,50,15,36,168,50*72
$GPGSV,3,2,10,17,33,061,50,18,19,247,50,22,23,285,50,24,85,065,50*7E
$GPGSV,3,3,10,25,15,229,50,26,05,146,*75
$GLGSV,1,1,00*65
$GNGLL,5159.37275,N,00059.49224,W,155035.00,A,A*6B
$GNRMC,155036.00,A,5159.37275,N,00059.49225,W,0.073,,040414,,,A*71
$GNVTG,,T,,M,0.073,N,0.136,K,A*3D
$GNGGA,155036.00,5159.37275,N,00059.49225,W,1,08,1.07,114.6,M,46.8,M,,*5A
$GNGSA,A,3,24,14,18,12,15,17,25,22,,,,,2.10,1.07,1.81*1D
$GNGSA,A,3,,,,,,,,,,,,,2.10,1.07,1.81*11
$GPGSV,3,1,10,01,02,010,,12,51,220,50,14,21,312,50,15,36,168,50*72
$GPGSV,3,2,10,17,33,061,50,18,19,247,50,22,23,285,50,24,85,065,50*7E
$GPGSV,3,3,10,25,15,229,50,26,05,146,*75
$GLGSV,1,1,00*65
$GNGLL,5159.37275,N,00059.49225,W,155036.00,A,A*69
$GNRMC,155037.00,A,5159.37275,N,00059.49226,W,0.063,,040414,,,A*72
$GNVTG,,T,,M,0.063,N,0.117,K,A*3F
$GNGGA,155037.00,5159.37275,N,00059.49226,W,1,08,1.07,114.6,M,46.8,M,,*58
$GNGSA,A,3,24,14,18,12,15,17,25,22,,,,,2.10,1.07,1.81*1D
$GNGSA,A,3,,,,,,,,,,,,,2.10,1.07,1.81*11
$GPGSV,3,1,10,01,02,010,,12,51,220,50,14,21,312,50,15,36,168,50*72
$GPGSV,3,2,10,17,33,061,50,18,19,247,50,22,23,285,50,24,85,065,50*7E
$GPGSV,3,3,10,25,15,229,50,26,05,146,*75
$GLGSV,1,1,00*65
$GNGLL,5159.37275,N,00059.49226,W,155037.00,A,A*6B
$GNRMC,155038.00,A,5159.37275,N,00059.49227,W,0.073,,040414,,,A*7D
$GNVTG,,T,,M,0.073,N,0.135,K,A*3E
$GNGGA,155038.00,5159.37275,N,00059.49227,W,1,08,1.07,114.6,M,46.8,M,,*56
$GNGSA,A,3,24,14,18,12,15,17,25,22,,,,,2.10,1.07,1.81*1D
$GNGSA,A,3,,,,,,,,,,,,,2.10,1.07,1.81*11
$GPGSV,3,1,10,01,02,010,,12,51,220,50,14,21,312,50,15,36,168,50*72
$GPGSV,3,2,10,17,33,061,50,18,19,247,50,22,23,285,50,24,85,065,50*7E
$GPGSV,3,3,10,25,15,229,50,26,05,146,*75
$GLGSV,1,1,00*65
$GNGLL,5159.37275,N,00059.49227,W,155038.00,A,A*65
$GNRMC,155039.00,A,5159.37275,N,00059.49227,W,0.074,,040414,,,A*7B
$GNVTG,,T,,M,0.074,N,0.136,K,A*3A
$GNGGA,155039.00,5159.37275,N,00059.49227,W,1,08,1.07,114.6,M,46.8,M,,*57
$GNGSA,A,3,24,14,18,12,15,17,25,22,,,,,2.10,1.07,1.81*1D
$GNGSA,A,3,,,,,,,,,,,,,2.10,1.07,1.81*11
$GPGSV,3,1,10,01,02,010,,12,51,220,50,14,21,312,50,15,36,168,50*72
$GPGSV,3,2,10,17,33,061,50,18,19,247,50,22,23,285,50,24,85,065,50*7E
$GPGSV,3,3,10,25,15,229,50,26,05,146,*75
$GLGSV,1,1,00*65
$GNGLL,5159.37275,N,00059.49227,W,155039.00,A,A*64
$GNRMC,155040.00,A,5159.37275,N,00059.49228,W,0.067,,040414,,,A*78
$GNVTG,,T,,M,0.067,N,0.125,K,A*3A
$GNGGA,155040.00,5159.37275,N,00059.49228,W,1,08,1.07,114.7,M,46.8,M,,*57
$GNGSA,A,3,24,14,18,12,15,17,25,22,,,,,2.10,1.07,1.81*1D
$GNGSA,A,3,,,,,,,,,,,,,2.10,1.07,1.81*11
$GPGSV,3,1,10,01,02,010,,12,51,220,50,14,21,312,50,15,36,168,51*73
$GPGSV,3,2,10,17,33,061,50,18,19,247,50,22,23,285,50,24,85,065,51*7F
$GPGSV,3,3,10,25,15,229,50,26,05,146,*75
$GLGSV,1,1,00*65
$GNGLL,5159.37275,N,00059.49228,W,155040.00,A,A*65
$GNRMC,155041.00,A,5159.37275,N,00059.49229,W,0.073,,040414,,,A*7D
$GNVTG,,T,,M,0.073,N,0.135,K,A*3E
$GNGGA,155041.00,5159.37275,N,00059.49229,W,1,08,1.07,114.7,M,46.8,M,,*57
$GNGSA,A,3,24,14,18,12,15,17,25,22,,,,,2.10,1.07,1.81*1D
$GNGSA,A,3,,,,,,,,,,,,,2.10,1.07,1.81*11
$GPGSV,3,1,10,01,02,010,,12,51,220,51,14,21,312,50,15,36,168,50*73
$GPGSV,3,2,10,17,33,061,50,18,19,247,50,22,23,285,50,24,85,065,51*7F
$GPGSV,3,3,10,25,15,229,50,26,05,146,*75
$GLGSV,1,1,00*65
$GNGLL,5159.37275,N,00059.49229,W,155041.00,A,A*65
$GNRMC,155042.00,A,5159.37274,N,00059.49230,W,0.072,,040414,,,A*76
$GNVTG,,T,,M,0.072,N,0.133,K,A*39
$GNGGA,155042.00,5159.37274,N,00059.49230,W,1,08,1.07,114.7,M,46.8,M,,*5D
$GNGSA,A,3,24,14,18,12,15,17,25,22,,,,,2.10,1.07,1.81*1D
$GNGSA,A,3,,,,,,,,,,,,,2.10,1.07,1.81*11
$GPGSV,3,1,10,01,02,010,,12,51,220,50,14,21,312,50,15,36,168,50*72
$GPGSV,3,2,10,17,33,061,50,18,19,247,50,22,23,285,50,24,85,065,50*7E
$GPGSV,3,3,10,25,15,229,50,26,05,146,*75
$GLGSV,1,1,00*65
$GNGLL,5159.37274,N,00059.49230,W,155042.00,A,A*6F
$GNRMC,155043.00,A,5159.37274,N,00059.49231,W,0.071,,040414,,,A*75
$GNVTG,,T,,M,0.071,N,0.131,K,A*38
$GNGGA,155043.00,5159.37274,N,00059.49231,W,1,08,1.07,114.7,M,46.8,M,,*5D
$GNGSA,A,3,24,14,18,12,15,17,25,22,,,,,2.10,1.07,1.81*1D
$GNGSA,A,3,,,,,,,,,,,,,2.10,1.07,1.81*11
$GPGSV,3,1,10,01,02,010,,12,51,220,50,14,21,312,50,15,36,168,50*72
$GPGSV,3,2,10,17,33,061,50,18,19,247,50,22,23,285,50,24,85,065,50*7E
$GPGSV,3,3,10,25,15,229,50,26,05,146,*75
$GLGSV,1,1,00*65
$GNGLL,5159.37274,N,00059.49231,W,155043.00,A,A*6F
$GNRMC,155044.00,A,5159.37274,N,00059.49231,W,0.074,,040414,,,A*77
$GNVTG,,T,,M,0.074,N,0.138,K,A*34
$GNGGA,155044.00,5159.37274,N,00059.49231,W,1,08,1.07,114.7,M,46.8,M,,*5A
$GNGSA,A,3,24,14,18,12,15,17,25,22,,,,,2.10,1.07,1.81*1D
$GNGSA,A,3,,,,,,,,,,,,,2.10,1.07,1.81*11
$GPGSV,3,1,10,01,02,010,,12,51,220,50,14,21,312,50,15,36,168,50*72
$GPGSV,3,2,10,17,33,061,50,18,19,247,50,22,23,285,50,24,85,065,50*7E
$GPGSV,3,3,10,25,15,229,50,26,05,146,*75
$GLGSV,1,1,00*65
$GNGLL,5159.37274,N,00059.49231,W,155044.00,A,A*68
$GNRMC,155045.00,A,5159.37274,N,00059.49232,W,0.074,,040414,,,A*75
$GNVTG,,T,,M,0.074,N,0.137,K,A*3B
$GNGGA,155045.00,5159.37274,N,00059.49232,W,1,08,1.07,114.7,M,46.8,M,,*58
$GNGSA,A,3,24,14,18,12,15,17,25,22,,,,,2.10,1.07,1.81*1D
$GNGSA,A,3,,,,,,,,,,,,,2.10,1.07,1.81*11
$GPGSV,3,1,10,01,02,010,,12,51,220,50,14,21,312,50,15,36,168,50*72
$GPGSV,3,2,10,17,33,061,50,18,19,247,50,22,23,285,50,24,85,065,50*7E
$GPGSV,3,3,10,25,15,229,50,26,05,146,*75
$GLGSV,1,1,00*65
$GNGLL,5159.37274,N,00059.49232,W,155045.00,A,A*6A
$GNRMC,155046.00,A,5159.37274,N,00059.49233,W,0.068,,040414,,,A*7A
$GNVTG,,T,,M,0.068,N,0.126,K,A*36
$GNGGA,155046.00,5159.37274,N,00059.49233,W,1,08,1.07,114.7,M,46.8,M,,*5A
$GNGSA,A,3,24,14,18,12,15,17,25,22,,,,,2.10,1.07,1.81*1D
$GNGSA,A,3,,,,,,,,,,,,,2.10,1.07,1.81*11
$GPGSV,3,1,10,01,02,010,,12,51,220,50,14,21,312,50,15,36,168,50*72
$GPGSV,3,2,10,17,33,061,50,18,19,247,50,22,23,285,50,24,85,065,50*7E
$GPGSV,3,3,10,25,15,229,50,26,05,146,*75
$GLGSV,1,1,00*65
$GNGLL,5159.37274,N,00059.49233,W,155046.00,A,A*68
$GNRMC,155047.00,A,5159.37274,N,00059.49233,W,0.069,,040414,,,A*7A
$GNVTG,,T,,M,0.069,N,0.128,K,A*39
$GNGGA,155047.00,5159.37274,N,00059.49233,W,1,08,1.07,114.7,M,46.8,M,,*5B
$GNGSA,A,3,24,14,18,12,15,17,25,22,,,,,2.10,1.07,1.81*1D
$GNGSA,A,3,,,,,,,,,,,,,2.10,1.07,1.81*11
$GPGSV,3,1,10,01,02,010,,12,51,220,50,14,21,312,50,15,36,168,50*72
$GPGSV,3,2,10,17,33,061,50,18,19,247,50,22,23,285,50,24,85,065,50*7E
$GPGSV,3,3,10,25,15,229,50,26,05,146,*75
$GLGSV,1,1,00*65
$GNGLL,5159.37274,N,00059.49233,W,155047.00,A,A*69
$GNRMC,155048.00,A,5159.37274,N,00059.49234,W,0.074,,040414,,,A*7E
$GNVTG,,T,,M,0.074,N,0.138,K,A*34
$GNGGA,155048.00,5159.37274,N,00059.49234,W,1,08,1.07,114.7,M,46.8,M,,*53
$GNGSA,A,3,24,14,18,12,15,17,25,22,,,,,2.10,1.07,1.81*1D
$GNGSA,A,3,,,,,,,,,,,,,2.10,1.07,1.81*11
$GPGSV,3,1,10,01,02,010,,12,51,220,50,14,21,312,50,15,36,168,50*72
$GPGSV,3,2,10,17,33,061,50,18,19,247,50,22,23,285,50,24,85,065,50*7E
$GPGSV,3,3,10,25,15,229,50,26,05,146,*75
$GLGSV,1,1,00*65
$GNGLL,5159.37274,N,00059.49234,W,155048.00,A,A*61
$GNRMC,155049.00,A,5159.37274,N,00059.49235,W,0.077,,040414,,,A*7D
$GNVTG,,T,,M,0.077,N,0.143,K,A*3B
$GNGGA,155049.00,5159.37274,N,00059.49235,W,1,08,1.07,114.8,M,46.8,M,,*5C
$GNGSA,A,3,24,14,18,12,15,17,25,22,,,,,2.10,1.07,1.81*1D
$GNGSA,A,3,,,,,,,,,,,,,2.10,1.07,1.81*11
$GPGSV,3,1,10,01,02,010,,12,51,220,50,14,21,312,50,15,36,168,50*72
$GPGSV,3,2,10,17,33,061,50,18,19,247,50,22,23,285,50,24,85,065,50*7E
$GPGSV,3,3,10,25,15,229,50,26,05,146,*75
$GLGSV,1,1,00*65
$GNGLL,5159.37274,N,00059.49235,W,155049.00,A,A*61
$GNRMC,155050.00,A,5159.37274,N,00059.49236,W,0.077,,040414,,,A*76
$GNVTG,,T,,M,0.077,N,0.142,K,A*3A
$GNGGA,155050.00,5159.37274,N,00059.49236,W,1,08,1.07,114.8,M,46.8,M,,*57
$GNGSA,A,3,24,14,18,12,15,17,25,22,,,,,2.10,1.07,1.81*1D
$GNGSA,A,3,,,,,,,,,,,,,2.10,1.07,1.81*11
$GPGSV,3,1,10,01,02,010,,12,51,220,50,14,21,312,50,15,36,168,50*72
$GPGSV,3,2,10,17,33,061,50,18,19,247,50,22,23,285,50,24,85,065,50*7E
$GPGSV,3,3,10,25,15,229,50,26,05,146,*75
$GLGSV,1,1,00*65
$GNGLL,5159.37274,N,00059.49236,W,155050.00,A,A*6A
$GNRMC,155051.00,A,5159.37274,N,00059.49237,W,0.063,,040414,,,A*73
$GNVTG,,T,,M,0.063,N,0.117,K,A*3F
$GNGGA,155051.00,5159.37274,N,00059.49237,W,1,08,1.07,114.8,M,46.8,M,,*57
$GNGSA,A,3,24,14,18,12,15,17,25,22,,,,,2.10,1.07,1.81*1D
$GNGSA,A,3,,,,,,,,,,,,,2.10,1.07,1.81*11
$GPGSV,3,1,10,01,02,010,,12,51,220,50,14,21,312,50,15,36,168,50*72
$GPGSV,3,2,10,17,33,061,50,18,19,247,50,22,23,285,50,24,85,065,50*7E
$GPGSV,3,3,10,25,15,229,50,26,05,146,*75
$GLGSV,1,1,00*65
$GNGLL,5159.37274,N,00059.49237,W,155051.00,A,A*6A
$GNRMC,155052.00,A,5159.37274,N,00059.49237,W,0.076,,040414,,,A*74
$GNVTG,,T,,M,0.076,N,0.141,K,A*38
$GNGGA,155052.00,5159.37274,N,00059.49237,W,1,08,1.07,114.8,M,46.8,M,,*54
$GNGSA,A,3,24,14,18,12,15,17,25,22,,,,,2.10,1.07,1.81*1D
$GNGSA,A,3,,,,,,,,,,,,,2.10,1.07,1.81*11
$GPGSV,3,1,10,01,02,010,,12,51,220,50,14,21,312,50,15,36,168,50*72
$GPGSV,3,2,10,17,33,061,50,18,19,247,50,22,23,285,50,24,85,065,50*7E
$GPGSV,3,3,10,25,15,229,50,26,05,146,*75
$GLGSV,1,1,00*65
$GNGLL,5159.37274,N,00059.49237,W,155052.00,A,A*69
$GNRMC,155053.00,A,5159.37274,N,00059.49238,W,0.070,,040414,,,A*7C
$GNVTG,,T,,M,0.070,N,0.129,K,A*30
$GNGGA,155053.00,5159.37274,N,00059.49238,W,1,08,1.07,114.8,M,46.8,M,,*5A
$GNGSA,A,3,24,14,18,12,15,17,25,22,,,,,2.10,1.07,1.81*1D
$GNGSA,A,3,,,,,,,,,,,,,2.10,1.07,1.81*11
$GPGSV,3,1,10,01,02,010,,12,51,220,50,14,21,312,50,15,36,168,50*72
$GPGSV,3,2,10,17,33,061,50,18,19,247,50,22,23,285,50,24,85,065,50*7E
$GPGSV,3,3,10,25,15,229,50,26,05,146,*75
$GLGSV,1,1,00*65
$GNGLL,5159.37274,N,00059.49238,W,155053.00,A,A*67
$GNRMC,155054.00,A,5159.37274,N,00059.49238,W,0.077,,040414,,,A*7C
$GNVTG,,T,,M,0.077,N,0.142,K,A*3A
$GNGGA,155054.00,5159.37274,N,00059.49238,W,1,08,1.07,114.8,M,46.8,M,,*5D
$GNGSA,A,3,24,14,18,12,15,17,25,22,,,,,2.10,1.07,1.81*1D
$GNGSA,A,3,,,,,,,,,,,,,2.10,1.07,1.81*11
$GPGSV,3,1,10,01,02,010,,12,51,220,50,14,21,312,50,15,36,168,50*72
$GPGSV,3,2,10,17,33,061,50,18,19,247,50,22,23,285,50,24,85,065,50*7E
$GPGSV,3,3,10,25,15,229,50,26,05,146,*75
$GLGSV,1,1,00*65
$GNGLL,5159.37274,N,00059.49238,W,155054.00,A,A*60
$GNRMC,155055.00,A,5159.37274,N,00059.49239,W,0.075,,040414,,,A*7E
$GNVTG,,T,,M,0.075,N,0.138,K,A*35
$GNGGA,155055.00,5159.37274,N,00059.49239,W,1,08,1.07,114.8,M,46.8,M,,*5D
$GNGSA,A,3,24,14,18,12,15,17,25,22,,,,,2.10,1.07,1.81*1D
$GNGSA,A,3,,,,,,,,,,,,,2.10,1.07,1.81*11
$GPGSV,3,1,10,01,02,010,,12,51,220,50,14,21,312,50,15,36,168,50*72
$GPGSV,3,2,10,17,33,061,50,18,19,247,50,22,23,285,50,24,85,065,50*7E
$GPGSV,3,3,10,25,15,229,50,26,05,146,*75
$GLGSV,1,1,00*65
$GNGLL,5159.37274,N,00059.49239,W,155055.00,A,A*60
$GNRMC,155056.00,A,5159.37274,N,00059.49240,W,0.072,,040414,,,A*74
$GNVTG,,T,,M,0.072,N,0.134,K,A*3E
$GNGGA,155056.00,5159.37274,N,00059.49240,W,1,08,1.07,114.8,M,46.8,M,,*50
$GNGSA,A,3,24,14,18,12,15,17,25,22,,,,,2.10,1.07,1.81*1D
$GNGSA,A,3,,,,,,,,,,,,,2.10,1.07,1.81*11
$GPGSV,3,1,10,01,02,010,,12,51,220,50,14,21,312,50,15,36,168,50*72
$GPGSV,3,2,10,17,33,061,50,18,19,247,50,22,23,285,50,24,85,065,50*7E
$GPGSV,3,3,10,25,15,229,50,26,05,146,*75
$GLGSV,1,1,00*65
$GNGLL,5159.37274,N,00059.49240,W,155056.00,A,A*6D
$GNRMC,155057.00,A,5159.37274,N,00059.49241,W,0.074,,040414,,,A*72
$GNVTG,,T,,M,0.074,N,0.137,K,A*3B
$GNGGA,155057.00,5159.37274,N,00059.49241,W,1,08,1.07,114.8,M,46.8,M,,*50
